[  
    {  
        "stationId":"ST-117",
        "stationName":"301. 경복궁역 7번출구 앞",
        "rackTotCnt":"16",
        "parkingBikeTotCnt":"6",
        "shared":"38",
        "stationLatitude":"37.575794",
        "stationLongitude":"126.971451"
    },
    {  
        "stationId":"ST-118",
        "stationName":"302. 경복궁역 4번출구 뒤",
        "rackTotCnt":"12",
        "parkingBikeTotCnt":"10",
        "shared":"83",
        "stationLatitude":"37.575947",
        "stationLongitude":"126.974060"
    },
    {  
        "stationId":"ST-119",
        "stationName":"303. 광화문역 1번출구 앞",
        "rackTotCnt":"8",
        "parkingBikeTotCnt":"10",
        "shared":"125",
        "stationLatitude":"37.571770",
        "stationLongitude":"126.974663"
    },
    {  
        "stationId":"ST-120",
        "stationName":"304. 광화문역 2번출구 앞",
        "rackTotCnt":"7",
        "parkingBikeTotCnt":"7",
        "shared":"100",
        "stationLatitude":"37.572113",
        "stationLongitude":"126.977577"
    },
    {  
        "stationId":"ST-121",
        "stationName":"305. 종로구청 옆",
        "rackTotCnt":"16",
        "parkingBikeTotCnt":"20",
        "shared":"125",
        "stationLatitude":"37.572582",
        "stationLongitude":"126.978355"
    },
    {  
        "stationId":"ST-122",
        "stationName":"306. 광화문역 7번출구 앞",
        "rackTotCnt":"9",
        "parkingBikeTotCnt":"1",
        "shared":"11",
        "stationLatitude":"37.570808",
        "stationLongitude":"126.976433"
    },
    {  
        "stationId":"ST-123",
        "stationName":"307. 서울역사박물관 앞",
        "rackTotCnt":"11",
        "parkingBikeTotCnt":"12",
        "shared":"109",
        "stationLatitude":"37.570000",
        "stationLongitude":"126.971100"
    },
    {  
        "stationId":"ST-124",
        "stationName":"308. 광화문 S타워 앞",
        "rackTotCnt":"10",
        "parkingBikeTotCnt":"14",
        "shared":"140",
        "stationLatitude":"37.569969",
        "stationLongitude":"126.973938"
    },
    {  
        "stationId":"ST-125",
        "stationName":"309. 광화문역 6번출구 옆",
        "rackTotCnt":"13",
        "parkingBikeTotCnt":"8",
        "shared":"62",
        "stationLatitude":"37.569889",
        "stationLongitude":"126.976456"
    },
    {  
        "stationId":"ST-130",
        "stationName":"314. 국립현대미술관",
        "rackTotCnt":"10",
        "parkingBikeTotCnt":"10",
        "shared":"100",
        "stationLatitude":"37.579708",
        "stationLongitude":"126.980858"
    },
    {  
        "stationId":"ST-131",
        "stationName":"315. 신한은행 안국역지점 옆",
        "rackTotCnt":"9",
        "parkingBikeTotCnt":"5",
        "shared":"56",
        "stationLatitude":"37.575970",
        "stationLongitude":"126.983063"
    },
    {  
        "stationId":"ST-132",
        "stationName":"316. 종각역 1번출구 앞",
        "rackTotCnt":"12",
        "parkingBikeTotCnt":"16",
        "shared":"133",
        "stationLatitude":"37.570396",
        "stationLongitude":"126.981789"
    },
    {  
        "stationId":"ST-142",
        "stationName":"326. 안국역 5번출구 앞",
        "rackTotCnt":"19",
        "parkingBikeTotCnt":"21",
        "shared":"111",
        "stationLatitude":"37.576241",
        "stationLongitude":"126.986160"
    },
    {  
        "stationId":"ST-143",
        "stationName":"327. 낙원상가 옆",
        "rackTotCnt":"10",
        "parkingBikeTotCnt":"7",
        "shared":"70",
        "stationLatitude":"37.573357",
        "stationLongitude":"126.987465"
    },
    {  
        "stationId":"ST-144",
        "stationName":"328. 탑골공원 앞",
        "rackTotCnt":"11",
        "parkingBikeTotCnt":"5",
        "shared":"45",
        "stationLatitude":"37.570396",
        "stationLongitude":"126.988190"
    },
    {  
        "stationId":"ST-145",
        "stationName":"329. 청계2가 사거리 옆",
        "rackTotCnt":"8",
        "parkingBikeTotCnt":"10",
        "shared":"125",
        "stationLatitude":"37.568344",
        "stationLongitude":"126.987892"
    },
    {  
        "stationId":"ST-150",
        "stationName":"334. 종로3가역 2번출구 뒤",
        "rackTotCnt":"10",
        "parkingBikeTotCnt":"15",
        "shared":"150",
        "stationLatitude":"37.570599",
        "stationLongitude":"126.991791"
    },
    {  
        "stationId":"ST-151",
        "stationName":"335. 종로3가역 15번출구 앞",
        "rackTotCnt":"10",
        "parkingBikeTotCnt":"13",
        "shared":"130",
        "stationLatitude":"37.570198",
        "stationLongitude":"126.991257"
    },
    {  
        "stationId":"ST-153",
        "stationName":"337. 창경궁 입구",
        "rackTotCnt":"5",
        "parkingBikeTotCnt":"7",
        "shared":"140",
        "stationLatitude":"37.578979",
        "stationLongitude":"126.996475"
    },
    {  
        "stationId":"ST-154",
        "stationName":"338. 세운스퀘어 앞",
        "rackTotCnt":"18",
        "parkingBikeTotCnt":"5",
        "shared":"28",
        "stationLatitude":"37.570957",
        "stationLongitude":"126.997124"
    },
    {  
        "stationId":"ST-155",
        "stationName":"339. 종로4가 사거리",
        "rackTotCnt":"10",
        "parkingBikeTotCnt":"12",
        "shared":"120",
        "stationLatitude":"37.571068",
        "stationLongitude":"126.998192"
    },
    {  
        "stationId":"ST-156",
        "stationName":"340. 혜화동 로터리",
        "rackTotCnt":"8",
        "parkingBikeTotCnt":"12",
        "shared":"150",
        "stationLatitude":"37.585629",
        "stationLongitude":"127.000679"
    },
    {  
        "stationId":"ST-157",
        "stationName":"341. 혜화역 3번출구 뒤",
        "rackTotCnt":"10",
        "parkingBikeTotCnt":"5",
        "shared":"50",
        "stationLatitude":"37.581570",
        "stationLongitude":"127.001785"
    },
    {  
        "stationId":"ST-158",
        "stationName":"342. 대학로 마로니에공원",
        "rackTotCnt":"10",
        "parkingBikeTotCnt":"2",
        "shared":"20",
        "stationLatitude":"37.579784",
        "stationLongitude":"127.002533"
    },
    {  
        "stationId":"ST-159",
        "stationName":"343. 예일빌딩(율곡로) 앞",
        "rackTotCnt":"12",
        "parkingBikeTotCnt":"10",
        "shared":"83",
        "stationLatitude":"37.575432",
        "stationLongitude":"127.004982"
    },
    {  
        "stationId":"ST-160",
        "stationName":"344. 성균관대 E하우스 앞",
        "rackTotCnt":"10",
        "parkingBikeTotCnt":"1",
        "shared":"10",
        "stationLatitude":"37.574036",
        "stationLongitude":"127.006721"
    },
    {  
        "stationId":"ST-161",
        "stationName":"345. 서울보증보험본사 앞",
        "rackTotCnt":"15",
        "parkingBikeTotCnt":"14",
        "shared":"93",
        "stationLatitude":"37.573307",
        "stationLongitude":"127.000710"
    },
    {  
        "stationId":"ST-183",
        "stationName":"348. 독립문역 사거리",
        "rackTotCnt":"14",
        "parkingBikeTotCnt":"2",
        "shared":"14",
        "stationLatitude":"37.572029",
        "stationLongitude":"126.960785"
    },
    {  
        "stationId":"ST-165",
        "stationName":"349. 사직동주민센터",
        "rackTotCnt":"7",
        "parkingBikeTotCnt":"4",
        "shared":"57",
        "stationLatitude":"37.576332",
        "stationLongitude":"126.968590"
    },
    {  
        "stationId":"ST-167",
        "stationName":"351. 청운초교 앞 삼거리",
        "rackTotCnt":"8",
        "parkingBikeTotCnt":"0",
        "shared":"0",
        "stationLatitude":"37.585079",
        "stationLongitude":"126.970619"
    },
    {  
        "stationId":"ST-168",
        "stationName":"352. 중앙고입구 삼거리",
        "rackTotCnt":"15",
        "parkingBikeTotCnt":"9",
        "shared":"60",
        "stationLatitude":"37.583416",
        "stationLongitude":"126.985237"
    },
    {  
        "stationId":"ST-169",
        "stationName":"353. 재동초교 앞 삼거리",
        "rackTotCnt":"8",
        "parkingBikeTotCnt":"6",
        "shared":"75",
        "stationLatitude":"37.579388",
        "stationLongitude":"126.984947"
    },
    {  
        "stationId":"ST-170",
        "stationName":"354. 포르투갈 대사관 앞",
        "rackTotCnt":"10",
        "parkingBikeTotCnt":"5",
        "shared":"50",
        "stationLatitude":"37.579155",
        "stationLongitude":"126.988960"
    },
    {  
        "stationId":"ST-171",
        "stationName":"355. 서울사대부속초교 앞",
        "rackTotCnt":"15",
        "parkingBikeTotCnt":"15",
        "shared":"100",
        "stationLatitude":"37.576508",
        "stationLongitude":"127.002457"
    },
    {  
        "stationId":"ST-172",
        "stationName":"356. KT혜화지사 앞",
        "rackTotCnt":"15",
        "parkingBikeTotCnt":"18",
        "shared":"120",
        "stationLatitude":"37.577145",
        "stationLongitude":"127.002060"
    },
    {  
        "stationId":"ST-173",
        "stationName":"358. 성대입구 사거리",
        "rackTotCnt":"13",
        "parkingBikeTotCnt":"7",
        "shared":"54",
        "stationLatitude":"37.582500",
        "stationLongitude":"126.998535"
    },
    {  
        "stationId":"ST-174",
        "stationName":"359. 원남동사거리",
        "rackTotCnt":"8",
        "parkingBikeTotCnt":"12",
        "shared":"150",
        "stationLatitude":"37.576061",
        "stationLongitude":"126.997681"
    },
    {  
        "stationId":"ST-175",
        "stationName":"361. 동묘앞역 1번출구 뒤",
        "rackTotCnt":"10",
        "parkingBikeTotCnt":"16",
        "shared":"160",
        "stationLatitude":"37.573242",
        "stationLongitude":"127.015907"
    },
    {  
        "stationId":"ST-176",
        "stationName":"362. 청계8가 사거리",
        "rackTotCnt":"10",
        "parkingBikeTotCnt":"1",
        "shared":"10",
        "stationLatitude":"37.572224",
        "stationLongitude":"127.022705"
    },
    {  
        "stationId":"ST-177",
        "stationName":"363. 신설동역 11번출구 뒤",
        "rackTotCnt":"10",
        "parkingBikeTotCnt":"0",
        "shared":"0",
        "stationLatitude":"37.575760",
        "stationLongitude":"127.022835"
    },
    {  
        "stationId":"ST-178",
        "stationName":"364. 창신역 1번출구 앞",
        "rackTotCnt":"8",
        "parkingBikeTotCnt":"1",
        "shared":"13",
        "stationLatitude":"37.579334",
        "stationLongitude":"127.015083"
    },
    {  
        "stationId":"ST-180",
        "stationName":"367. 독립문역 3-1번출구 ",
        "rackTotCnt":"8",
        "parkingBikeTotCnt":"0",
        "shared":"0",
        "stationLatitude":"37.573849",
        "stationLongitude":"126.958694"
    },
    {  
        "stationId":"ST-181",
        "stationName":"368. SK 서린빌딩 앞",
        "rackTotCnt":"12",
        "parkingBikeTotCnt":"7",
        "shared":"58",
        "stationLatitude":"37.569248",
        "stationLongitude":"126.980537"
    },
    {  
        "stationId":"ST-182",
        "stationName":"369. 광화문 시민열린마당",
        "rackTotCnt":"20",
        "parkingBikeTotCnt":"23",
        "shared":"115",
        "stationLatitude":"37.575493",
        "stationLongitude":"126.978500"
    },
    {  
        "stationId":"ST-336",
        "stationName":"385. 종각역 5번출구",
        "rackTotCnt":"10",
        "parkingBikeTotCnt":"5",
        "shared":"50",
        "stationLatitude":"37.569836",
        "stationLongitude":"126.982658"
    },
    {  
        "stationId":"ST-337",
        "stationName":"386. 올림픽기념 국민생활관 앞",
        "rackTotCnt":"10",
        "parkingBikeTotCnt":"0",
        "shared":"0",
        "stationLatitude":"37.590233",
        "stationLongitude":"126.998520"
    },
    {  
        "stationId":"ST-444",
        "stationName":"388. 동성중학교 앞",
        "rackTotCnt":"10",
        "parkingBikeTotCnt":"13",
        "shared":"130",
        "stationLatitude":"37.585735",
        "stationLongitude":"127.001610"
    },
    {  
        "stationId":"ST-1372",
        "stationName":"393. 동대문역 8번 출구",
        "rackTotCnt":"10",
        "parkingBikeTotCnt":"12",
        "shared":"120",
        "stationLatitude":"37.570141",
        "stationLongitude":"127.009377"
    },
    {  
        "stationId":"ST-1373",
        "stationName":"394. 경희궁 자이 3단지",
        "rackTotCnt":"15",
        "parkingBikeTotCnt":"17",
        "shared":"113",
        "stationLatitude":"37.567490",
        "stationLongitude":"126.965919"
    },
    {  
        "stationId":"ST-1374",
        "stationName":"395. 경희궁 자이 2단지",
        "rackTotCnt":"8",
        "parkingBikeTotCnt":"8",
        "shared":"100",
        "stationLatitude":"37.568855",
        "stationLongitude":"126.964561"
    },
    {  
        "stationId":"ST-1432",
        "stationName":"397. 종묘공영주차장 건너편",
        "rackTotCnt":"13",
        "parkingBikeTotCnt":"2",
        "shared":"15",
        "stationLatitude":"37.570480",
        "stationLongitude":"126.996635"
    },
    {  
        "stationId":"ST-938",
        "stationName":"446. 상명대입구",
        "rackTotCnt":"10",
        "parkingBikeTotCnt":"3",
        "shared":"30",
        "stationLatitude":"37.600128",
        "stationLongitude":"126.957832"
    },
    {  
        "stationId":"ST-939",
        "stationName":"447. 신영동삼거리",
        "rackTotCnt":"10",
        "parkingBikeTotCnt":"1",
        "shared":"10",
        "stationLatitude":"37.603992",
        "stationLongitude":"126.961945"
    },
    {  
        "stationId":"ST-941",
        "stationName":"449. 일성아파트",
        "rackTotCnt":"10",
        "parkingBikeTotCnt":"1",
        "shared":"10",
        "stationLatitude":"37.608719",
        "stationLongitude":"126.972862"
    },
    {  
        "stationId":"ST-978",
        "stationName":"450. 효자동 삼거리",
        "rackTotCnt":"20",
        "parkingBikeTotCnt":"3",
        "shared":"15",
        "stationLatitude":"37.583603",
        "stationLongitude":"126.972549"
    },
    {  
        "stationId":"ST-979",
        "stationName":"451. 청와대앞길",
        "rackTotCnt":"13",
        "parkingBikeTotCnt":"12",
        "shared":"92",
        "stationLatitude":"37.583515",
        "stationLongitude":"126.979668"
    },
    {  
        "stationId":"ST-1605",
        "stationName":"452. 동대문 종합시장 버스정류장",
        "rackTotCnt":"13",
        "parkingBikeTotCnt":"12",
        "shared":"92",
        "stationLatitude":"37.571239",
        "stationLongitude":"127.004410"
    },
    {  
        "stationId":"ST-1606",
        "stationName":"453. 종로오가 지하쇼핑센터 14번출구",
        "rackTotCnt":"10",
        "parkingBikeTotCnt":"7",
        "shared":"70",
        "stationLatitude":"37.571140",
        "stationLongitude":"127.000671"
    },
    {  
        "stationId":"ST-1607",
        "stationName":"454. 종로2가 버스정류장 (종각방향)",
        "rackTotCnt":"13",
        "parkingBikeTotCnt":"4",
        "shared":"31",
        "stationLatitude":"37.570358",
        "stationLongitude":"126.986382"
    },
    {  
        "stationId":"ST-1608",
        "stationName":"455. 삼익한의원",
        "rackTotCnt":"8",
        "parkingBikeTotCnt":"4",
        "shared":"50",
        "stationLatitude":"37.570961",
        "stationLongitude":"127.006058"
    },
    {  
        "stationId":"ST-1609",
        "stationName":"456. 숭인2동 주민센터 입구 (이강3대냉면)",
        "rackTotCnt":"10",
        "parkingBikeTotCnt":"1",
        "shared":"10",
        "stationLatitude":"37.574471",
        "stationLongitude":"127.019829"
    },
    {  
        "stationId":"ST-1610",
        "stationName":"457. 종로꽃시장 입구 옆",
        "rackTotCnt":"10",
        "parkingBikeTotCnt":"5",
        "shared":"50",
        "stationLatitude":"37.571320",
        "stationLongitude":"127.007210"
    },
    {  
        "stationId":"ST-1611",
        "stationName":"458. 광화문역 5번출구",
        "rackTotCnt":"11",
        "parkingBikeTotCnt":"1",
        "shared":"9",
        "stationLatitude":"37.569939",
        "stationLongitude":"126.977539"
    },
    {  
        "stationId":"ST-1619",
        "stationName":"461. 서울지방경찰청",
        "rackTotCnt":"10",
        "parkingBikeTotCnt":"3",
        "shared":"30",
        "stationLatitude":"37.574364",
        "stationLongitude":"126.972366"
    },
    {  
        "stationId":"ST-116",
        "stationName":"300. 정동사거리",
        "rackTotCnt":"7",
        "parkingBikeTotCnt":"4",
        "shared":"57",
        "stationLatitude":"37.568050",
        "stationLongitude":"126.969231"
    },
    {  
        "stationId":"ST-126",
        "stationName":"310. 청계광장 옆",
        "rackTotCnt":"10",
        "parkingBikeTotCnt":"3",
        "shared":"30",
        "stationLatitude":"37.568878",
        "stationLongitude":"126.977470"
    },
    {  
        "stationId":"ST-127",
        "stationName":"311. 서울광장 옆",
        "rackTotCnt":"35",
        "parkingBikeTotCnt":"36",
        "shared":"103",
        "stationLatitude":"37.566612",
        "stationLongitude":"126.977470"
    },
    {  
        "stationId":"ST-128",
        "stationName":"312. 시청역 1번출구 뒤",
        "rackTotCnt":"7",
        "parkingBikeTotCnt":"11",
        "shared":"157",
        "stationLatitude":"37.564674",
        "stationLongitude":"126.976738"
    },
    {  
        "stationId":"ST-129",
        "stationName":"313. 서울역 광장 파출소 옆",
        "rackTotCnt":"5",
        "parkingBikeTotCnt":"0",
        "shared":"0",
        "stationLatitude":"37.556961",
        "stationLongitude":"126.971771"
    },
    {  
        "stationId":"ST-134",
        "stationName":"318. 광교사거리 남측",
        "rackTotCnt":"10",
        "parkingBikeTotCnt":"7",
        "shared":"70",
        "stationLatitude":"37.568527",
        "stationLongitude":"126.982552"
    },
    {  
        "stationId":"ST-136",
        "stationName":"320. 을지로입구역 4번출구 앞",
        "rackTotCnt":"20",
        "parkingBikeTotCnt":"15",
        "shared":"75",
        "stationLatitude":"37.566223",
        "stationLongitude":"126.983589"
    },
    {  
        "stationId":"ST-137",
        "stationName":"321. KEB 하나금융그룹 명동사옥 옆",
        "rackTotCnt":"15",
        "parkingBikeTotCnt":"7",
        "shared":"47",
        "stationLatitude":"37.565464",
        "stationLongitude":"126.984138"
    },
    {  
        "stationId":"ST-138",
        "stationName":"322. 명동성당 앞",
        "rackTotCnt":"15",
        "parkingBikeTotCnt":"3",
        "shared":"20",
        "stationLatitude":"37.564476",
        "stationLongitude":"126.986969"
    },
    {  
        "stationId":"ST-140",
        "stationName":"324. 신세계백화점 본점 앞",
        "rackTotCnt":"10",
        "parkingBikeTotCnt":"2",
        "shared":"20",
        "stationLatitude":"37.561340",
        "stationLongitude":"126.980400"
    },
    {  
        "stationId":"ST-146",
        "stationName":"330. 청계천 한빛광장",
        "rackTotCnt":"10",
        "parkingBikeTotCnt":"4",
        "shared":"40",
        "stationLatitude":"37.568165",
        "stationLongitude":"126.984978"
    },
    {  
        "stationId":"ST-147",
        "stationName":"331. 을지로2가 사거리 북측",
        "rackTotCnt":"10",
        "parkingBikeTotCnt":"2",
        "shared":"20",
        "stationLatitude":"37.566383",
        "stationLongitude":"126.987206"
    },
    {  
        "stationId":"ST-148",
        "stationName":"332. 을지로2가 사거리 남측",
        "rackTotCnt":"5",
        "parkingBikeTotCnt":"1",
        "shared":"20",
        "stationLatitude":"37.565990",
        "stationLongitude":"126.987793"
    },
    {  
        "stationId":"ST-152",
        "stationName":"336. 티마크 호텔 앞",
        "rackTotCnt":"10",
        "parkingBikeTotCnt":"2",
        "shared":"20",
        "stationLatitude":"37.562618",
        "stationLongitude":"126.992836"
    },
    {  
        "stationId":"ST-162",
        "stationName":"346. 맥스타일 앞",
        "rackTotCnt":"10",
        "parkingBikeTotCnt":"20",
        "shared":"200",
        "stationLatitude":"37.569183",
        "stationLongitude":"127.009880"
    },
    {  
        "stationId":"ST-163",
        "stationName":"347. 동대문역사문화공원역 9번출구 앞",
        "rackTotCnt":"18",
        "parkingBikeTotCnt":"7",
        "shared":"39",
        "stationLatitude":"37.565331",
        "stationLongitude":"127.007843"
    },
    {  
        "stationId":"ST-185",
        "stationName":"370. 시청역(2호선) 9번출구 뒤",
        "rackTotCnt":"8",
        "parkingBikeTotCnt":"10",
        "shared":"125",
        "stationLatitude":"37.563229",
        "stationLongitude":"126.974838"
    },
    {  
        "stationId":"ST-186",
        "stationName":"371. 동대입구역 6번출구 뒤",
        "rackTotCnt":"10",
        "parkingBikeTotCnt":"6",
        "shared":"60",
        "stationLatitude":"37.558872",
        "stationLongitude":"127.005539"
    },
    {  
        "stationId":"ST-187",
        "stationName":"372. 약수역 3번출구 뒤",
        "rackTotCnt":"10",
        "parkingBikeTotCnt":"6",
        "shared":"60",
        "stationLatitude":"37.554295",
        "stationLongitude":"127.011200"
    },
    {  
        "stationId":"ST-188",
        "stationName":"373. 청구 어린이공원",
        "rackTotCnt":"8",
        "parkingBikeTotCnt":"5",
        "shared":"63",
        "stationLatitude":"37.555859",
        "stationLongitude":"127.013855"
    },
    {  
        "stationId":"ST-189",
        "stationName":"374. 청구역 2번출구 앞",
        "rackTotCnt":"10",
        "parkingBikeTotCnt":"9",
        "shared":"90",
        "stationLatitude":"37.560474",
        "stationLongitude":"127.014076"
    },
    {  
        "stationId":"ST-190",
        "stationName":"375. 다산 어린이공원",
        "rackTotCnt":"8",
        "parkingBikeTotCnt":"0",
        "shared":"0",
        "stationLatitude":"37.563717",
        "stationLongitude":"127.018425"
    },
    {  
        "stationId":"ST-192",
        "stationName":"377. 서울역 5번출구 앞",
        "rackTotCnt":"10",
        "parkingBikeTotCnt":"17",
        "shared":"170",
        "stationLatitude":"37.557217",
        "stationLongitude":"126.973007"
    },
    {  
        "stationId":"ST-193",
        "stationName":"378. 청계7가 사거리",
        "rackTotCnt":"10",
        "parkingBikeTotCnt":"10",
        "shared":"100",
        "stationLatitude":"37.569805",
        "stationLongitude":"127.016953"
    },
    {  
        "stationId":"ST-194",
        "stationName":"379. 서울역9번출구",
        "rackTotCnt":"7",
        "parkingBikeTotCnt":"3",
        "shared":"43",
        "stationLatitude":"37.556000",
        "stationLongitude":"126.973358"
    },
    {  
        "stationId":"ST-195",
        "stationName":"380. CJ제일제당 앞",
        "rackTotCnt":"8",
        "parkingBikeTotCnt":"2",
        "shared":"25",
        "stationLatitude":"37.563866",
        "stationLongitude":"127.002747"
    },
    {  
        "stationId":"ST-196",
        "stationName":"381. 장충체육관",
        "rackTotCnt":"10",
        "parkingBikeTotCnt":"1",
        "shared":"10",
        "stationLatitude":"37.558533",
        "stationLongitude":"127.006989"
    },
    {  
        "stationId":"ST-197",
        "stationName":"382. 약수역 10번출구 앞",
        "rackTotCnt":"7",
        "parkingBikeTotCnt":"9",
        "shared":"129",
        "stationLatitude":"37.555199",
        "stationLongitude":"127.010048"
    },
    {  
        "stationId":"ST-198",
        "stationName":"383. 신당역 12번 출구 뒤",
        "rackTotCnt":"17",
        "parkingBikeTotCnt":"14",
        "shared":"82",
        "stationLatitude":"37.565849",
        "stationLongitude":"127.016403"
    },
    {  
        "stationId":"ST-199",
        "stationName":"384. 종로학원본원 ",
        "rackTotCnt":"10",
        "parkingBikeTotCnt":"3",
        "shared":"30",
        "stationLatitude":"37.559780",
        "stationLongitude":"126.968506"
    },
    {  
        "stationId":"ST-338",
        "stationName":"387. 훈련원공원주차장 앞",
        "rackTotCnt":"10",
        "parkingBikeTotCnt":"10",
        "shared":"100",
        "stationLatitude":"37.566994",
        "stationLongitude":"127.003464"
    },
    {  
        "stationId":"ST-943",
        "stationName":"389. 을지로4가역 1번출구",
        "rackTotCnt":"10",
        "parkingBikeTotCnt":"21",
        "shared":"210",
        "stationLatitude":"37.566730",
        "stationLongitude":"126.996605"
    },
    {  
        "stationId":"ST-944",
        "stationName":"390. 충무로역 1번출구",
        "rackTotCnt":"10",
        "parkingBikeTotCnt":"6",
        "shared":"60",
        "stationLatitude":"37.561390",
        "stationLongitude":"126.995354"
    },
    {  
        "stationId":"ST-977",
        "stationName":"391. 정동길입구",
        "rackTotCnt":"8",
        "parkingBikeTotCnt":"6",
        "shared":"75",
        "stationLatitude":"37.565437",
        "stationLongitude":"126.973305"
    },
    {  
        "stationId":"ST-1435",
        "stationName":"398. 을지로3가역 3번출구",
        "rackTotCnt":"8",
        "parkingBikeTotCnt":"8",
        "shared":"100",
        "stationLatitude":"37.566559",
        "stationLongitude":"126.992439"
    },
    {  
        "stationId":"ST-1436",
        "stationName":"399. 서울역 센트럴 자이아파트",
        "rackTotCnt":"15",
        "parkingBikeTotCnt":"0",
        "shared":"0",
        "stationLatitude":"37.554482",
        "stationLongitude":"126.966087"
    },
    {  
        "stationId":"ST-1437",
        "stationName":"428. 명보사거리",
        "rackTotCnt":"10",
        "parkingBikeTotCnt":"4",
        "shared":"40",
        "stationLatitude":"37.564400",
        "stationLongitude":"126.991432"
    },
    {  
        "stationId":"ST-1438",
        "stationName":"429. 송도병원",
        "rackTotCnt":"8",
        "parkingBikeTotCnt":"9",
        "shared":"113",
        "stationLatitude":"37.549889",
        "stationLongitude":"127.007347"
    },
    {  
        "stationId":"ST-1439",
        "stationName":"430. KEB하나은행 장충동지점",
        "rackTotCnt":"8",
        "parkingBikeTotCnt":"6",
        "shared":"75",
        "stationLatitude":"37.562172",
        "stationLongitude":"127.006264"
    },
    {  
        "stationId":"ST-1440",
        "stationName":"431. 청계천 영도교",
        "rackTotCnt":"15",
        "parkingBikeTotCnt":"5",
        "shared":"33",
        "stationLatitude":"37.570900",
        "stationLongitude":"127.019524"
    },
    {  
        "stationId":"ST-1668",
        "stationName":"433. 을지로입구역 2번출구",
        "rackTotCnt":"10",
        "parkingBikeTotCnt":"15",
        "shared":"150",
        "stationLatitude":"37.566345",
        "stationLongitude":"126.982292"
    },
    {  
        "stationId":"ST-1669",
        "stationName":"434. 신당 레미안 버스정류장",
        "rackTotCnt":"10",
        "parkingBikeTotCnt":"2",
        "shared":"20",
        "stationLatitude":"37.561489",
        "stationLongitude":"127.023933"
    },
    {  
        "stationId":"ST-1670",
        "stationName":"435. SK 남산빌딩",
        "rackTotCnt":"10",
        "parkingBikeTotCnt":"10",
        "shared":"100",
        "stationLatitude":"37.556862",
        "stationLongitude":"126.975616"
    },
    {  
        "stationId":"ST-946",
        "stationName":"826. 서울역 서부교차로2",
        "rackTotCnt":"20",
        "parkingBikeTotCnt":"5",
        "shared":"25",
        "stationLatitude":"37.555367",
        "stationLongitude":"126.968643"
    },
    {  
        "stationId":"ST-3",
        "stationName":"101. (구)합정동 주민센터",
        "rackTotCnt":"5",
        "parkingBikeTotCnt":"6",
        "shared":"120",
        "stationLatitude":"37.549561",
        "stationLongitude":"126.905754"
    },
    {  
        "stationId":"ST-4",
        "stationName":"102. 망원역 1번출구 앞",
        "rackTotCnt":"20",
        "parkingBikeTotCnt":"13",
        "shared":"65",
        "stationLatitude":"37.555649",
        "stationLongitude":"126.910629"
    },
    {  
        "stationId":"ST-5",
        "stationName":"103. 망원역 2번출구 앞",
        "rackTotCnt":"14",
        "parkingBikeTotCnt":"6",
        "shared":"43",
        "stationLatitude":"37.554951",
        "stationLongitude":"126.910835"
    },
    {  
        "stationId":"ST-6",
        "stationName":"104. 합정역 1번출구 앞",
        "rackTotCnt":"13",
        "parkingBikeTotCnt":"9",
        "shared":"69",
        "stationLatitude":"37.550629",
        "stationLongitude":"126.914986"
    },
    {  
        "stationId":"ST-7",
        "stationName":"105. 합정역 5번출구 앞",
        "rackTotCnt":"5",
        "parkingBikeTotCnt":"4",
        "shared":"80",
        "stationLatitude":"37.550007",
        "stationLongitude":"126.914825"
    },
    {  
        "stationId":"ST-8",
        "stationName":"106. 합정역 7번출구 앞",
        "rackTotCnt":"10",
        "parkingBikeTotCnt":"9",
        "shared":"90",
        "stationLatitude":"37.548645",
        "stationLongitude":"126.912827"
    },
    {  
        "stationId":"ST-9",
        "stationName":"107. 신한은행 서교동금융센터점 앞",
        "rackTotCnt":"5",
        "parkingBikeTotCnt":"8",
        "shared":"160",
        "stationLatitude":"37.557510",
        "stationLongitude":"126.918503"
    },
    {  
        "stationId":"ST-10",
        "stationName":"108. 서교동 사거리",
        "rackTotCnt":"10",
        "parkingBikeTotCnt":"7",
        "shared":"70",
        "stationLatitude":"37.552746",
        "stationLongitude":"126.918617"
    },
    {  
        "stationId":"ST-11",
        "stationName":"109. 제일빌딩 앞",
        "rackTotCnt":"10",
        "parkingBikeTotCnt":"7",
        "shared":"70",
        "stationLatitude":"37.547691",
        "stationLongitude":"126.919983"
    },
    {  
        "stationId":"ST-15",
        "stationName":"111. 상수역 2번출구 앞",
        "rackTotCnt":"10",
        "parkingBikeTotCnt":"4",
        "shared":"40",
        "stationLatitude":"37.547871",
        "stationLongitude":"126.923531"
    },
    {  
        "stationId":"ST-16",
        "stationName":"112. 극동방송국 앞",
        "rackTotCnt":"10",
        "parkingBikeTotCnt":"12",
        "shared":"120",
        "stationLatitude":"37.549202",
        "stationLongitude":"126.923203"
    },
    {  
        "stationId":"ST-18",
        "stationName":"113. 홍대입구역 2번출구 앞",
        "rackTotCnt":"25",
        "parkingBikeTotCnt":"60",
        "shared":"240",
        "stationLatitude":"37.557499",
        "stationLongitude":"126.923805"
    },
    {  
        "stationId":"ST-20",
        "stationName":"114. 홍대입구역 8번출구 앞",
        "rackTotCnt":"15",
        "parkingBikeTotCnt":"16",
        "shared":"107",
        "stationLatitude":"37.557060",
        "stationLongitude":"126.924423"
    },
    {  
        "stationId":"ST-19",
        "stationName":"118. 광흥창역 2번출구 앞",
        "rackTotCnt":"10",
        "parkingBikeTotCnt":"9",
        "shared":"90",
        "stationLatitude":"37.547733",
        "stationLongitude":"126.931763"
    },
    {  
        "stationId":"ST-21",
        "stationName":"119. 서강나루 공원",
        "rackTotCnt":"10",
        "parkingBikeTotCnt":"4",
        "shared":"40",
        "stationLatitude":"37.545284",
        "stationLongitude":"126.931053"
    },
    {  
        "stationId":"ST-22",
        "stationName":"120. 신수동 사거리",
        "rackTotCnt":"5",
        "parkingBikeTotCnt":"1",
        "shared":"20",
        "stationLatitude":"37.545242",
        "stationLongitude":"126.934113"
    },
    {  
        "stationId":"ST-23",
        "stationName":"121. 마포소방서 앞",
        "rackTotCnt":"15",
        "parkingBikeTotCnt":"12",
        "shared":"80",
        "stationLatitude":"37.549767",
        "stationLongitude":"126.933174"
    },
    {  
        "stationId":"ST-24",
        "stationName":"122. 신성기사식당 앞",
        "rackTotCnt":"10",
        "parkingBikeTotCnt":"7",
        "shared":"70",
        "stationLatitude":"37.547249",
        "stationLongitude":"126.939293"
    },
    {  
        "stationId":"ST-26",
        "stationName":"124. 서강대 정문 건너편",
        "rackTotCnt":"20",
        "parkingBikeTotCnt":"10",
        "shared":"50",
        "stationLatitude":"37.551140",
        "stationLongitude":"126.936989"
    },
    {  
        "stationId":"ST-27",
        "stationName":"125. 서강대 남문 옆",
        "rackTotCnt":"15",
        "parkingBikeTotCnt":"16",
        "shared":"107",
        "stationLatitude":"37.549484",
        "stationLongitude":"126.938950"
    },
    {  
        "stationId":"ST-28",
        "stationName":"126. 서강대 후문 옆",
        "rackTotCnt":"20",
        "parkingBikeTotCnt":"27",
        "shared":"135",
        "stationLatitude":"37.550411",
        "stationLongitude":"126.943848"
    },
    {  
        "stationId":"ST-29",
        "stationName":"127. 현대벤처빌 앞",
        "rackTotCnt":"15",
        "parkingBikeTotCnt":"3",
        "shared":"20",
        "stationLatitude":"37.553520",
        "stationLongitude":"126.936951"
    },
    {  
        "stationId":"ST-31",
        "stationName":"129. 신촌역(2호선) 6번출구 옆",
        "rackTotCnt":"15",
        "parkingBikeTotCnt":"3",
        "shared":"20",
        "stationLatitude":"37.555054",
        "stationLongitude":"126.937569"
    },
    {  
        "stationId":"ST-32",
        "stationName":"130. 신촌역(2호선) 7번출구 앞",
        "rackTotCnt":"10",
        "parkingBikeTotCnt":"9",
        "shared":"90",
        "stationLatitude":"37.554859",
        "stationLongitude":"126.936157"
    },
    {  
        "stationId":"ST-38",
        "stationName":"136. 대흥동 주민센터",
        "rackTotCnt":"7",
        "parkingBikeTotCnt":"1",
        "shared":"14",
        "stationLatitude":"37.556004",
        "stationLongitude":"126.942299"
    },
    {  
        "stationId":"ST-200",
        "stationName":"142. 아현역 4번출구 앞",
        "rackTotCnt":"11",
        "parkingBikeTotCnt":"5",
        "shared":"45",
        "stationLatitude":"37.557201",
        "stationLongitude":"126.955666"
    },
    {  
        "stationId":"ST-201",
        "stationName":"143. 공덕역 2번출구",
        "rackTotCnt":"9",
        "parkingBikeTotCnt":"11",
        "shared":"122",
        "stationLatitude":"37.544579",
        "stationLongitude":"126.950218"
    },
    {  
        "stationId":"ST-202",
        "stationName":"144. 공덕역 8번출구",
        "rackTotCnt":"10",
        "parkingBikeTotCnt":"9",
        "shared":"90",
        "stationLatitude":"37.543579",
        "stationLongitude":"126.951324"
    },
    {  
        "stationId":"ST-203",
        "stationName":"145. 공덕역 5번출구",
        "rackTotCnt":"9",
        "parkingBikeTotCnt":"2",
        "shared":"22",
        "stationLatitude":"37.544250",
        "stationLongitude":"126.951637"
    },
    {  
        "stationId":"ST-204",
        "stationName":"146. 마포역 2번출구 뒤",
        "rackTotCnt":"12",
        "parkingBikeTotCnt":"9",
        "shared":"75",
        "stationLatitude":"37.539936",
        "stationLongitude":"126.945824"
    },
    {  
        "stationId":"ST-205",
        "stationName":"147. 마포역 4번출구 뒤",
        "rackTotCnt":"7",
        "parkingBikeTotCnt":"7",
        "shared":"100",
        "stationLatitude":"37.539272",
        "stationLongitude":"126.945915"
    },
    {  
        "stationId":"ST-206",
        "stationName":"148. 용강동 주민센터 앞",
        "rackTotCnt":"11",
        "parkingBikeTotCnt":"10",
        "shared":"91",
        "stationLatitude":"37.542347",
        "stationLongitude":"126.943024"
    },
    {  
        "stationId":"ST-207",
        "stationName":"150. 서강대역 2번출구 앞",
        "rackTotCnt":"15",
        "parkingBikeTotCnt":"7",
        "shared":"47",
        "stationLatitude":"37.552956",
        "stationLongitude":"126.934341"
    },
    {  
        "stationId":"ST-208",
        "stationName":"151. 망원1동주민센터",
        "rackTotCnt":"10",
        "parkingBikeTotCnt":"3",
        "shared":"30",
        "stationLatitude":"37.555687",
        "stationLongitude":"126.905548"
    },
    {  
        "stationId":"ST-209",
        "stationName":"152. 마포구민체육센터 앞",
        "rackTotCnt":"30",
        "parkingBikeTotCnt":"20",
        "shared":"67",
        "stationLatitude":"37.556610",
        "stationLongitude":"126.898018"
    },
    {  
        "stationId":"ST-210",
        "stationName":"153. 성산2교 사거리",
        "rackTotCnt":"12",
        "parkingBikeTotCnt":"11",
        "shared":"92",
        "stationLatitude":"37.564697",
        "stationLongitude":"126.912613"
    },
    {  
        "stationId":"ST-211",
        "stationName":"154. 마포구청역 ",
        "rackTotCnt":"13",
        "parkingBikeTotCnt":"13",
        "shared":"100",
        "stationLatitude":"37.560909",
        "stationLongitude":"126.905495"
    },
    {  
        "stationId":"ST-212",
        "stationName":"155. 가좌역1 번출구 뒤",
        "rackTotCnt":"15",
        "parkingBikeTotCnt":"7",
        "shared":"47",
        "stationLatitude":"37.568550",
        "stationLongitude":"126.914513"
    },
    {  
        "stationId":"ST-213",
        "stationName":"156. 서울서부지방법원 앞",
        "rackTotCnt":"10",
        "parkingBikeTotCnt":"3",
        "shared":"30",
        "stationLatitude":"37.549904",
        "stationLongitude":"126.955147"
    },
    {  
        "stationId":"ST-214",
        "stationName":"157. 애오개역 4번출구 앞",
        "rackTotCnt":"12",
        "parkingBikeTotCnt":"15",
        "shared":"125",
        "stationLatitude":"37.553001",
        "stationLongitude":"126.956688"
    },
    {  
        "stationId":"ST-1477",
        "stationName":"1687. 서울월드컵경기장 테스트",
        "rackTotCnt":"10",
        "parkingBikeTotCnt":"2",
        "shared":"20",
        "stationLatitude":"37.568722",
        "stationLongitude":"126.896225"
    },
    {  
        "stationId":"ST-339",
        "stationName":"181. 망원초록길 입구",
        "rackTotCnt":"15",
        "parkingBikeTotCnt":"2",
        "shared":"13",
        "stationLatitude":"37.551342",
        "stationLongitude":"126.902672"
    },
    {  
        "stationId":"ST-340",
        "stationName":"182. 망원2빗물펌프장 앞",
        "rackTotCnt":"10",
        "parkingBikeTotCnt":"2",
        "shared":"20",
        "stationLatitude":"37.551567",
        "stationLongitude":"126.902847"
    },
    {  
        "stationId":"ST-341",
        "stationName":"183. 하늘채코오롱아파트 건너편",
        "rackTotCnt":"15",
        "parkingBikeTotCnt":"16",
        "shared":"107",
        "stationLatitude":"37.565166",
        "stationLongitude":"126.919395"
    },
    {  
        "stationId":"ST-342",
        "stationName":"184. SK망원동주유소 건너편",
        "rackTotCnt":"9",
        "parkingBikeTotCnt":"6",
        "shared":"67",
        "stationLatitude":"37.558949",
        "stationLongitude":"126.907753"
    },
    {  
        "stationId":"ST-343",
        "stationName":"185. 마포 신수공원 앞",
        "rackTotCnt":"15",
        "parkingBikeTotCnt":"4",
        "shared":"27",
        "stationLatitude":"37.542545",
        "stationLongitude":"126.934296"
    },
    {  
        "stationId":"ST-344",
        "stationName":"186. 월드컵공원",
        "rackTotCnt":"40",
        "parkingBikeTotCnt":"21",
        "shared":"53",
        "stationLatitude":"37.563965",
        "stationLongitude":"126.898209"
    },
    {  
        "stationId":"ST-443",
        "stationName":"199. 서울 월드컵 경기장",
        "rackTotCnt":"30",
        "parkingBikeTotCnt":"17",
        "shared":"57",
        "stationLatitude":"37.566845",
        "stationLongitude":"126.896446"
    },
    {  
        "stationId":"ST-110",
        "stationName":"400. 상암한화오벨리스크 1차 앞",
        "rackTotCnt":"15",
        "parkingBikeTotCnt":"9",
        "shared":"60",
        "stationLatitude":"37.587524",
        "stationLongitude":"126.883003"
    },
    {  
        "stationId":"ST-76",
        "stationName":"401. 상암월드컵파크 10단지 앞",
        "rackTotCnt":"15",
        "parkingBikeTotCnt":"12",
        "shared":"80",
        "stationLatitude":"37.586189",
        "stationLongitude":"126.881615"
    },
    {  
        "stationId":"ST-77",
        "stationName":"402. 상암월드컵파크 9단지 앞",
        "rackTotCnt":"20",
        "parkingBikeTotCnt":"10",
        "shared":"50",
        "stationLatitude":"37.582855",
        "stationLongitude":"126.879822"
    },
    {  
        "stationId":"ST-78",
        "stationName":"403. 부엉이공원 앞",
        "rackTotCnt":"20",
        "parkingBikeTotCnt":"0",
        "shared":"0",
        "stationLatitude":"37.585590",
        "stationLongitude":"126.884727"
    },
    {  
        "stationId":"ST-80",
        "stationName":"405. DMC빌 앞",
        "rackTotCnt":"8",
        "parkingBikeTotCnt":"10",
        "shared":"125",
        "stationLatitude":"37.582657",
        "stationLongitude":"126.885788"
    },
    {  
        "stationId":"ST-81",
        "stationName":"406. 상암월드컵파크 7단지 앞",
        "rackTotCnt":"15",
        "parkingBikeTotCnt":"8",
        "shared":"53",
        "stationLatitude":"37.581314",
        "stationLongitude":"126.880585"
    },
    {  
        "stationId":"ST-83",
        "stationName":"407. 마포구 육아종합지원센터",
        "rackTotCnt":"8",
        "parkingBikeTotCnt":"7",
        "shared":"88",
        "stationLatitude":"37.580631",
        "stationLongitude":"126.883675"
    },
    {  
        "stationId":"ST-84",
        "stationName":"408. LG CNS앞",
        "rackTotCnt":"20",
        "parkingBikeTotCnt":"16",
        "shared":"80",
        "stationLatitude":"37.580811",
        "stationLongitude":"126.886650"
    },
    {  
        "stationId":"ST-86",
        "stationName":"409. 누리꿈스퀘어 옆",
        "rackTotCnt":"25",
        "parkingBikeTotCnt":"33",
        "shared":"132",
        "stationLatitude":"37.579399",
        "stationLongitude":"126.889160"
    },
    {  
        "stationId":"ST-88",
        "stationName":"410. 상암중학교 옆",
        "rackTotCnt":"10",
        "parkingBikeTotCnt":"3",
        "shared":"30",
        "stationLatitude":"37.577496",
        "stationLongitude":"126.887772"
    },
    {  
        "stationId":"ST-90",
        "stationName":"411. DMC홍보관",
        "rackTotCnt":"9",
        "parkingBikeTotCnt":"9",
        "shared":"100",
        "stationLatitude":"37.577995",
        "stationLongitude":"126.891472"
    },
    {  
        "stationId":"ST-91",
        "stationName":"412. DMC산학협력연구센터 앞",
        "rackTotCnt":"20",
        "parkingBikeTotCnt":"23",
        "shared":"115",
        "stationLatitude":"37.575802",
        "stationLongitude":"126.890739"
    },
    {  
        "stationId":"ST-92",
        "stationName":"413. 상암월드컵파크 3단지 후문",
        "rackTotCnt":"9",
        "parkingBikeTotCnt":"7",
        "shared":"78",
        "stationLatitude":"37.571476",
        "stationLongitude":"126.889687"
    },
    {  
        "stationId":"ST-94",
        "stationName":"414. 상암동주민센터 옆",
        "rackTotCnt":"8",
        "parkingBikeTotCnt":"7",
        "shared":"88",
        "stationLatitude":"37.578220",
        "stationLongitude":"126.894470"
    },
    {  
        "stationId":"ST-95",
        "stationName":"415. DMC역 9번출구 앞",
        "rackTotCnt":"10",
        "parkingBikeTotCnt":"3",
        "shared":"30",
        "stationLatitude":"37.577469",
        "stationLongitude":"126.897362"
    },
    {  
        "stationId":"ST-96",
        "stationName":"416. 상암월드컵파크 1단지 교차로",
        "rackTotCnt":"12",
        "parkingBikeTotCnt":"4",
        "shared":"33",
        "stationLatitude":"37.575665",
        "stationLongitude":"126.894447"
    },
    {  
        "stationId":"ST-93",
        "stationName":"417. DMC역 2번출구 옆",
        "rackTotCnt":"20",
        "parkingBikeTotCnt":"21",
        "shared":"105",
        "stationLatitude":"37.575069",
        "stationLongitude":"126.899918"
    },
    {  
        "stationId":"ST-89",
        "stationName":"418. 월드컵경기장역 3번출구 옆",
        "rackTotCnt":"10",
        "parkingBikeTotCnt":"12",
        "shared":"120",
        "stationLatitude":"37.570721",
        "stationLongitude":"126.898979"
    },
    {  
        "stationId":"ST-87",
        "stationName":"419. 홈플러스 앞",
        "rackTotCnt":"21",
        "parkingBikeTotCnt":"9",
        "shared":"43",
        "stationLatitude":"37.568420",
        "stationLongitude":"126.899429"
    },
    {  
        "stationId":"ST-85",
        "stationName":"420. 서울시 공공자전거 상암센터",
        "rackTotCnt":"40",
        "parkingBikeTotCnt":"28",
        "shared":"70",
        "stationLatitude":"37.566246",
        "stationLongitude":"126.896179"
    },
    {  
        "stationId":"ST-82",
        "stationName":"421. 마포구청 앞",
        "rackTotCnt":"8",
        "parkingBikeTotCnt":"3",
        "shared":"38",
        "stationLatitude":"37.565903",
        "stationLongitude":"126.901184"
    },
    {  
        "stationId":"ST-968",
        "stationName":"422. 문화비축기지",
        "rackTotCnt":"13",
        "parkingBikeTotCnt":"11",
        "shared":"85",
        "stationLatitude":"37.569084",
        "stationLongitude":"126.894424"
    },
    {  
        "stationId":"ST-990",
        "stationName":"424. 롯데하이마트 (상암월드컵점) ",
        "rackTotCnt":"15",
        "parkingBikeTotCnt":"11",
        "shared":"73",
        "stationLatitude":"37.573620",
        "stationLongitude":"126.898048"
    },
    {  
        "stationId":"ST-991",
        "stationName":"425. DMC첨단산업센터",
        "rackTotCnt":"10",
        "parkingBikeTotCnt":"5",
        "shared":"50",
        "stationLatitude":"37.584503",
        "stationLongitude":"126.885597"
    },
    {  
        "stationId":"ST-992",
        "stationName":"426. 서울신용보증재단",
        "rackTotCnt":"10",
        "parkingBikeTotCnt":"10",
        "shared":"100",
        "stationLatitude":"37.549061",
        "stationLongitude":"126.954178"
    },
    {  
        "stationId":"ST-1397",
        "stationName":"427. 성산시영아파트",
        "rackTotCnt":"10",
        "parkingBikeTotCnt":"8",
        "shared":"80",
        "stationLatitude":"37.569584",
        "stationLongitude":"126.903816"
    },
    {  
        "stationId":"ST-1494",
        "stationName":"432. 마포중앙도서관",
        "rackTotCnt":"10",
        "parkingBikeTotCnt":"2",
        "shared":"20",
        "stationLatitude":"37.563339",
        "stationLongitude":"126.908203"
    },
    {  
        "stationId":"ST-1675",
        "stationName":"436. 이대역 5번출구",
        "rackTotCnt":"10",
        "parkingBikeTotCnt":"4",
        "shared":"40",
        "stationLatitude":"37.556591",
        "stationLongitude":"126.946190"
    },
    {  
        "stationId":"ST-1691",
        "stationName":"437. 대흥역 1번출구",
        "rackTotCnt":"12",
        "parkingBikeTotCnt":"11",
        "shared":"92",
        "stationLatitude":"37.548210",
        "stationLongitude":"126.941383"
    },
    {  
        "stationId":"ST-1692",
        "stationName":"438. 성산2-1 공영주차장",
        "rackTotCnt":"15",
        "parkingBikeTotCnt":"12",
        "shared":"80",
        "stationLatitude":"37.564720",
        "stationLongitude":"126.906769"
    },
    {  
        "stationId":"ST-1693",
        "stationName":"439. 마포어린이공원",
        "rackTotCnt":"10",
        "parkingBikeTotCnt":"8",
        "shared":"80",
        "stationLatitude":"37.535751",
        "stationLongitude":"126.944038"
    },
    {  
        "stationId":"ST-13",
        "stationName":"110. 사천교",
        "rackTotCnt":"20",
        "parkingBikeTotCnt":"6",
        "shared":"30",
        "stationLatitude":"37.568199",
        "stationLongitude":"126.917847"
    },
    {  
        "stationId":"ST-12",
        "stationName":"115. 사루비아 빌딩 앞",
        "rackTotCnt":"15",
        "parkingBikeTotCnt":"11",
        "shared":"73",
        "stationLatitude":"37.558933",
        "stationLongitude":"126.927116"
    },
    {  
        "stationId":"ST-14",
        "stationName":"116. 일진아이윌아파트 옆",
        "rackTotCnt":"5",
        "parkingBikeTotCnt":"7",
        "shared":"140",
        "stationLatitude":"37.564541",
        "stationLongitude":"126.927071"
    },
    {  
        "stationId":"ST-25",
        "stationName":"123. 문화촌 공원",
        "rackTotCnt":"20",
        "parkingBikeTotCnt":"10",
        "shared":"50",
        "stationLatitude":"37.594330",
        "stationLongitude":"126.947388"
    },
    {  
        "stationId":"ST-30",
        "stationName":"128. 신촌역(2호선) 1번출구 옆",
        "rackTotCnt":"20",
        "parkingBikeTotCnt":"13",
        "shared":"65",
        "stationLatitude":"37.555496",
        "stationLongitude":"126.936340"
    },
    {  
        "stationId":"ST-33",
        "stationName":"131. 증산2교",
        "rackTotCnt":"23",
        "parkingBikeTotCnt":"12",
        "shared":"52",
        "stationLatitude":"37.584171",
        "stationLongitude":"126.911102"
    },
    {  
        "stationId":"ST-35",
        "stationName":"133. 해담는다리",
        "rackTotCnt":"15",
        "parkingBikeTotCnt":"4",
        "shared":"27",
        "stationLatitude":"37.582031",
        "stationLongitude":"126.908997"
    },
    {  
        "stationId":"ST-36",
        "stationName":"134. 연세로 명물길",
        "rackTotCnt":"8",
        "parkingBikeTotCnt":"11",
        "shared":"138",
        "stationLatitude":"37.557892",
        "stationLongitude":"126.938080"
    },
    {  
        "stationId":"ST-37",
        "stationName":"135. 명물길 원형무대 앞",
        "rackTotCnt":"10",
        "parkingBikeTotCnt":"8",
        "shared":"80",
        "stationLatitude":"37.559101",
        "stationLongitude":"126.939178"
    },
    {  
        "stationId":"ST-39",
        "stationName":"137. NH농협 신촌지점 앞",
        "rackTotCnt":"10",
        "parkingBikeTotCnt":"10",
        "shared":"100",
        "stationLatitude":"37.556812",
        "stationLongitude":"126.943184"
    },
    {  
        "stationId":"ST-40",
        "stationName":"138. 신촌동 제1공영주차장 앞",
        "rackTotCnt":"10",
        "parkingBikeTotCnt":"2",
        "shared":"20",
        "stationLatitude":"37.559177",
        "stationLongitude":"126.934525"
    },
    {  
        "stationId":"ST-43",
        "stationName":"139. 연세대 정문 건너편",
        "rackTotCnt":"13",
        "parkingBikeTotCnt":"9",
        "shared":"69",
        "stationLatitude":"37.559795",
        "stationLongitude":"126.934479"
    },
    {  
        "stationId":"ST-41",
        "stationName":"140. 이화여대 후문",
        "rackTotCnt":"20",
        "parkingBikeTotCnt":"12",
        "shared":"60",
        "stationLatitude":"37.560009",
        "stationLongitude":"126.940735"
    },
    {  
        "stationId":"ST-42",
        "stationName":"141. 연대 대운동장 옆",
        "rackTotCnt":"20",
        "parkingBikeTotCnt":"18",
        "shared":"90",
        "stationLatitude":"37.562382",
        "stationLongitude":"126.932648"
    },
    {  
        "stationId":"ST-215",
        "stationName":"158. 독립문 어린이 공원",
        "rackTotCnt":"15",
        "parkingBikeTotCnt":"7",
        "shared":"47",
        "stationLatitude":"37.571259",
        "stationLongitude":"126.960480"
    },
    {  
        "stationId":"ST-216",
        "stationName":"159. 이대역 4번 출구",
        "rackTotCnt":"7",
        "parkingBikeTotCnt":"4",
        "shared":"57",
        "stationLatitude":"37.556953",
        "stationLongitude":"126.946342"
    },
    {  
        "stationId":"ST-217",
        "stationName":"160. 북아현동 가구거리",
        "rackTotCnt":"20",
        "parkingBikeTotCnt":"16",
        "shared":"80",
        "stationLatitude":"37.557549",
        "stationLongitude":"126.959381"
    },
    {  
        "stationId":"ST-218",
        "stationName":"161. 무악재역1번 출구",
        "rackTotCnt":"8",
        "parkingBikeTotCnt":"8",
        "shared":"100",
        "stationLatitude":"37.582245",
        "stationLongitude":"126.950645"
    },
    {  
        "stationId":"ST-219",
        "stationName":"162. 봉원고가차도 밑",
        "rackTotCnt":"15",
        "parkingBikeTotCnt":"14",
        "shared":"93",
        "stationLatitude":"37.565269",
        "stationLongitude":"126.946243"
    },
    {  
        "stationId":"ST-220",
        "stationName":"163. 명지전문대학교 정문 앞",
        "rackTotCnt":"7",
        "parkingBikeTotCnt":"2",
        "shared":"29",
        "stationLatitude":"37.583698",
        "stationLongitude":"126.924965"
    },
    {  
        "stationId":"ST-221",
        "stationName":"164. 북가좌1동 주민센터 ",
        "rackTotCnt":"10",
        "parkingBikeTotCnt":"7",
        "shared":"70",
        "stationLatitude":"37.574478",
        "stationLongitude":"126.910049"
    },
    {  
        "stationId":"ST-222",
        "stationName":"165. 중앙근린공원",
        "rackTotCnt":"20",
        "parkingBikeTotCnt":"9",
        "shared":"45",
        "stationLatitude":"37.575138",
        "stationLongitude":"126.913940"
    },
    {  
        "stationId":"ST-223",
        "stationName":"166. 가재울 초등학교",
        "rackTotCnt":"20",
        "parkingBikeTotCnt":"6",
        "shared":"30",
        "stationLatitude":"37.573277",
        "stationLongitude":"126.919678"
    },
    {  
        "stationId":"ST-224",
        "stationName":"167. 연가초등학교 옆",
        "rackTotCnt":"15",
        "parkingBikeTotCnt":"4",
        "shared":"27",
        "stationLatitude":"37.579460",
        "stationLongitude":"126.917130"
    },
    {  
        "stationId":"ST-226",
        "stationName":"169. 북가좌 삼거리",
        "rackTotCnt":"15",
        "parkingBikeTotCnt":"12",
        "shared":"80",
        "stationLatitude":"37.573002",
        "stationLongitude":"126.907799"
    },
    {  
        "stationId":"ST-227",
        "stationName":"170. 가재울 뉴타운 주유소 옆",
        "rackTotCnt":"10",
        "parkingBikeTotCnt":"9",
        "shared":"90",
        "stationLatitude":"37.573112",
        "stationLongitude":"126.922447"
    },
    {  
        "stationId":"ST-228",
        "stationName":"171. 임광빌딩 앞",
        "rackTotCnt":"10",
        "parkingBikeTotCnt":"6",
        "shared":"60",
        "stationLatitude":"37.564724",
        "stationLongitude":"126.967278"
    },
    {  
        "stationId":"ST-229",
        "stationName":"172. 서대문소방서",
        "rackTotCnt":"8",
        "parkingBikeTotCnt":"4",
        "shared":"50",
        "stationLatitude":"37.573254",
        "stationLongitude":"126.935722"
    },
    {  
        "stationId":"ST-230",
        "stationName":"173. 서대문역 8번출구 앞",
        "rackTotCnt":"8",
        "parkingBikeTotCnt":"6",
        "shared":"75",
        "stationLatitude":"37.564777",
        "stationLongitude":"126.966148"
    },
    {  
        "stationId":"ST-231",
        "stationName":"175. 홍연2교옆",
        "rackTotCnt":"20",
        "parkingBikeTotCnt":"12",
        "shared":"60",
        "stationLatitude":"37.578072",
        "stationLongitude":"126.930817"
    },
    {  
        "stationId":"ST-555",
        "stationName":"176. 명지대학교 도서관",
        "rackTotCnt":"10",
        "parkingBikeTotCnt":"17",
        "shared":"170",
        "stationLatitude":"37.581097",
        "stationLongitude":"126.924026"
    },
    {  
        "stationId":"ST-345",
        "stationName":"177. 북가좌 초등학교",
        "rackTotCnt":"8",
        "parkingBikeTotCnt":"4",
        "shared":"50",
        "stationLatitude":"37.577675",
        "stationLongitude":"126.909805"
    },
    {  
        "stationId":"ST-349",
        "stationName":"178. 증산3교 앞",
        "rackTotCnt":"10",
        "parkingBikeTotCnt":"1",
        "shared":"10",
        "stationLatitude":"37.579876",
        "stationLongitude":"126.906349"
    },
    {  
        "stationId":"ST-232",
        "stationName":"179. 가좌역 4번출구 앞",
        "rackTotCnt":"15",
        "parkingBikeTotCnt":"9",
        "shared":"60",
        "stationLatitude":"37.569122",
        "stationLongitude":"126.914795"
    },
    {  
        "stationId":"ST-233",
        "stationName":"180. 충정로역 7번출구 아래",
        "rackTotCnt":"10",
        "parkingBikeTotCnt":"5",
        "shared":"50",
        "stationLatitude":"37.559967",
        "stationLongitude":"126.962463"
    },
    {  
        "stationId":"ST-346",
        "stationName":"188. 홍은동 정원여중 입구",
        "rackTotCnt":"10",
        "parkingBikeTotCnt":"3",
        "shared":"30",
        "stationLatitude":"37.586388",
        "stationLongitude":"126.935127"
    },
    {  
        "stationId":"ST-347",
        "stationName":"191. 정명학원",
        "rackTotCnt":"10",
        "parkingBikeTotCnt":"8",
        "shared":"80",
        "stationLatitude":"37.578892",
        "stationLongitude":"126.910736"
    },
    {  
        "stationId":"ST-348",
        "stationName":"192. 연서어린이공원",
        "rackTotCnt":"10",
        "parkingBikeTotCnt":"6",
        "shared":"60",
        "stationLatitude":"37.572227",
        "stationLongitude":"126.923065"
    },
    {  
        "stationId":"ST-350",
        "stationName":"194. 증산교 앞",
        "rackTotCnt":"10",
        "parkingBikeTotCnt":"10",
        "shared":"100",
        "stationLatitude":"37.577316",
        "stationLongitude":"126.902969"
    },
    {  
        "stationId":"ST-351",
        "stationName":"195. 모래내고가차도 ",
        "rackTotCnt":"10",
        "parkingBikeTotCnt":"10",
        "shared":"100",
        "stationLatitude":"37.567657",
        "stationLongitude":"126.917809"
    },
    {  
        "stationId":"ST-352",
        "stationName":"196. 연희교차로 인근",
        "rackTotCnt":"10",
        "parkingBikeTotCnt":"10",
        "shared":"100",
        "stationLatitude":"37.566120",
        "stationLongitude":"126.925896"
    },
    {  
        "stationId":"ST-354",
        "stationName":"198. 충정2교",
        "rackTotCnt":"15",
        "parkingBikeTotCnt":"19",
        "shared":"127",
        "stationLatitude":"37.562138",
        "stationLongitude":"126.963776"
    },
    {  
        "stationId":"ST-1188",
        "stationName":"3100. 북성초교",
        "rackTotCnt":"8",
        "parkingBikeTotCnt":"4",
        "shared":"50",
        "stationLatitude":"37.557396",
        "stationLongitude":"126.952164"
    },
    {  
        "stationId":"ST-1189",
        "stationName":"3101. 서대문구청",
        "rackTotCnt":"15",
        "parkingBikeTotCnt":"7",
        "shared":"47",
        "stationLatitude":"37.578381",
        "stationLongitude":"126.936096"
    },
    {  
        "stationId":"ST-1190",
        "stationName":"3102. 연희삼거리",
        "rackTotCnt":"10",
        "parkingBikeTotCnt":"0",
        "shared":"0",
        "stationLatitude":"37.567966",
        "stationLongitude":"126.931725"
    },
    {  
        "stationId":"ST-1491",
        "stationName":"3103. 홍제삼거리 북측",
        "rackTotCnt":"8",
        "parkingBikeTotCnt":"6",
        "shared":"75",
        "stationLatitude":"37.586700",
        "stationLongitude":"126.946770"
    },
    {  
        "stationId":"ST-1492",
        "stationName":"3104. e편한세상 신촌4단지 앞",
        "rackTotCnt":"13",
        "parkingBikeTotCnt":"17",
        "shared":"131",
        "stationLatitude":"37.558128",
        "stationLongitude":"126.956207"
    },
    {  
        "stationId":"ST-1493",
        "stationName":"3105. 홍은센트레빌 아파트 앞",
        "rackTotCnt":"12",
        "parkingBikeTotCnt":"9",
        "shared":"75",
        "stationLatitude":"37.597149",
        "stationLongitude":"126.938530"
    },
    {  
        "stationId":"ST-1643",
        "stationName":"3106. 홍남교 두바퀴쉼터",
        "rackTotCnt":"7",
        "parkingBikeTotCnt":"5",
        "shared":"71",
        "stationLatitude":"37.574909",
        "stationLongitude":"126.926147"
    },
    {  
        "stationId":"ST-1644",
        "stationName":"3107. 연희초등학교 앞",
        "rackTotCnt":"7",
        "parkingBikeTotCnt":"8",
        "shared":"114",
        "stationLatitude":"37.569740",
        "stationLongitude":"126.933327"
    },
    {  
        "stationId":"ST-1195",
        "stationName":"3511. 응봉역 1번출구",
        "rackTotCnt":"10",
        "parkingBikeTotCnt":"5",
        "shared":"50",
        "stationLatitude":"37.551250",
        "stationLongitude":"127.035103"
    },
    {  
        "stationId":"ST-1197",
        "stationName":"3513. 상왕십리역 1번출구",
        "rackTotCnt":"10",
        "parkingBikeTotCnt":"2",
        "shared":"20",
        "stationLatitude":"37.564610",
        "stationLongitude":"127.029198"
    },
    {  
        "stationId":"ST-1198",
        "stationName":"3514. 왕십리교회옆",
        "rackTotCnt":"10",
        "parkingBikeTotCnt":"7",
        "shared":"70",
        "stationLatitude":"37.566261",
        "stationLongitude":"127.023697"
    },
    {  
        "stationId":"ST-1199",
        "stationName":"3515. 서울숲 관리사무소",
        "rackTotCnt":"20",
        "parkingBikeTotCnt":"15",
        "shared":"75",
        "stationLatitude":"37.542816",
        "stationLongitude":"127.042084"
    },
    {  
        "stationId":"ST-1336",
        "stationName":"3519. 용답역 1번 출구",
        "rackTotCnt":"10",
        "parkingBikeTotCnt":"13",
        "shared":"130",
        "stationLatitude":"37.562607",
        "stationLongitude":"127.051308"
    },
    {  
        "stationId":"ST-1377",
        "stationName":"3522. 사근삼거리",
        "rackTotCnt":"9",
        "parkingBikeTotCnt":"12",
        "shared":"133",
        "stationLatitude":"37.561245",
        "stationLongitude":"127.048851"
    },
    {  
        "stationId":"ST-1599",
        "stationName":"3525. 금호스포츠센터앞",
        "rackTotCnt":"15",
        "parkingBikeTotCnt":"13",
        "shared":"87",
        "stationLatitude":"37.546089",
        "stationLongitude":"127.025070"
    },
    {  
        "stationId":"ST-1601",
        "stationName":"3527. 왕십리 자이아파트",
        "rackTotCnt":"8",
        "parkingBikeTotCnt":"6",
        "shared":"75",
        "stationLatitude":"37.561790",
        "stationLongitude":"127.024391"
    },
    {  
        "stationId":"ST-1616",
        "stationName":"3530. 왕십리자이아파트 후문(삼거리)",
        "rackTotCnt":"15",
        "parkingBikeTotCnt":"9",
        "shared":"60",
        "stationLatitude":"37.560146",
        "stationLongitude":"127.026360"
    },
    {  
        "stationId":"ST-1617",
        "stationName":"3531. 논골사거리(금호도서관 입구)",
        "rackTotCnt":"15",
        "parkingBikeTotCnt":"5",
        "shared":"33",
        "stationLatitude":"37.554779",
        "stationLongitude":"127.024841"
    },
    {  
        "stationId":"ST-1618",
        "stationName":"3532. 왕십리KCC스위첸아파트",
        "rackTotCnt":"15",
        "parkingBikeTotCnt":"9",
        "shared":"60",
        "stationLatitude":"37.560680",
        "stationLongitude":"127.026779"
    },
    {  
        "stationId":"ST-1659",
        "stationName":"3538. 서울숲 IT캐슬",
        "rackTotCnt":"14",
        "parkingBikeTotCnt":"5",
        "shared":"36",
        "stationLatitude":"37.550892",
        "stationLongitude":"127.044762"
    },
    {  
        "stationId":"ST-103",
        "stationName":"506. 금호 어울림 아파트 앞",
        "rackTotCnt":"7",
        "parkingBikeTotCnt":"2",
        "shared":"29",
        "stationLatitude":"37.549061",
        "stationLongitude":"127.057793"
    },
    {  
        "stationId":"ST-104",
        "stationName":"507. 성수아이에스비즈타워 앞",
        "rackTotCnt":"7",
        "parkingBikeTotCnt":"11",
        "shared":"157",
        "stationLatitude":"37.548203",
        "stationLongitude":"127.057114"
    },
    {  
        "stationId":"ST-105",
        "stationName":"508. 성수아카데미타워 앞",
        "rackTotCnt":"10",
        "parkingBikeTotCnt":"9",
        "shared":"90",
        "stationLatitude":"37.545166",
        "stationLongitude":"127.057510"
    },
    {  
        "stationId":"ST-106",
        "stationName":"509. 이마트 버스정류소 옆",
        "rackTotCnt":"20",
        "parkingBikeTotCnt":"18",
        "shared":"90",
        "stationLatitude":"37.539654",
        "stationLongitude":"127.052589"
    },
    {  
        "stationId":"ST-107",
        "stationName":"510. 서울숲 남문 버스정류소 옆",
        "rackTotCnt":"10",
        "parkingBikeTotCnt":"8",
        "shared":"80",
        "stationLatitude":"37.541222",
        "stationLongitude":"127.043800"
    },
    {  
        "stationId":"ST-108",
        "stationName":"511. 서울숲역 4번 출구 옆",
        "rackTotCnt":"16",
        "parkingBikeTotCnt":"17",
        "shared":"106",
        "stationLatitude":"37.544582",
        "stationLongitude":"127.044609"
    },
    {  
        "stationId":"ST-109",
        "stationName":"512. 뚝섬역 1번 출구 옆",
        "rackTotCnt":"15",
        "parkingBikeTotCnt":"19",
        "shared":"127",
        "stationLatitude":"37.548561",
        "stationLongitude":"127.045006"
    },
    {  
        "stationId":"ST-111",
        "stationName":"513. 뚝섬역 5번 출구 정류소 옆",
        "rackTotCnt":"13",
        "parkingBikeTotCnt":"14",
        "shared":"108",
        "stationLatitude":"37.546307",
        "stationLongitude":"127.049805"
    },
    {  
        "stationId":"ST-112",
        "stationName":"514. 성수사거리 버스정류장 앞",
        "rackTotCnt":"7",
        "parkingBikeTotCnt":"18",
        "shared":"257",
        "stationLatitude":"37.542580",
        "stationLongitude":"127.063309"
    },
    {  
        "stationId":"ST-234",
        "stationName":"518. 청계천 박물관 앞",
        "rackTotCnt":"20",
        "parkingBikeTotCnt":"18",
        "shared":"90",
        "stationLatitude":"37.571526",
        "stationLongitude":"127.035355"
    },
    {  
        "stationId":"ST-235",
        "stationName":"519. 양지사거리",
        "rackTotCnt":"20",
        "parkingBikeTotCnt":"8",
        "shared":"40",
        "stationLatitude":"37.566994",
        "stationLongitude":"127.029915"
    },
    {  
        "stationId":"ST-236",
        "stationName":"520. 상왕십리역 4번 출구 앞",
        "rackTotCnt":"10",
        "parkingBikeTotCnt":"5",
        "shared":"50",
        "stationLatitude":"37.563858",
        "stationLongitude":"127.030319"
    },
    {  
        "stationId":"ST-237",
        "stationName":"521. 왕십리역 11번 출구 앞",
        "rackTotCnt":"14",
        "parkingBikeTotCnt":"3",
        "shared":"21",
        "stationLatitude":"37.561447",
        "stationLongitude":"127.034920"
    },
    {  
        "stationId":"ST-238",
        "stationName":"522. 금호역 1번출구 앞",
        "rackTotCnt":"9",
        "parkingBikeTotCnt":"8",
        "shared":"89",
        "stationLatitude":"37.548641",
        "stationLongitude":"127.016426"
    },
    {  
        "stationId":"ST-239",
        "stationName":"523. 옥수동성당 옆",
        "rackTotCnt":"11",
        "parkingBikeTotCnt":"3",
        "shared":"27",
        "stationLatitude":"37.543663",
        "stationLongitude":"127.014061"
    },
    {  
        "stationId":"ST-240",
        "stationName":"524. 래미안금호하이리버 아파트 102동 옆",
        "rackTotCnt":"10",
        "parkingBikeTotCnt":"8",
        "shared":"80",
        "stationLatitude":"37.552200",
        "stationLongitude":"127.025055"
    },
    {  
        "stationId":"ST-241",
        "stationName":"525. 한양대병원사거리",
        "rackTotCnt":"20",
        "parkingBikeTotCnt":"27",
        "shared":"135",
        "stationLatitude":"37.558052",
        "stationLongitude":"127.040352"
    },
    {  
        "stationId":"ST-242",
        "stationName":"526. 용답토속공원 앞",
        "rackTotCnt":"10",
        "parkingBikeTotCnt":"7",
        "shared":"70",
        "stationLatitude":"37.563511",
        "stationLongitude":"127.056725"
    },
    {  
        "stationId":"ST-243",
        "stationName":"529. 장한평역 8번 출구 앞",
        "rackTotCnt":"15",
        "parkingBikeTotCnt":"11",
        "shared":"73",
        "stationLatitude":"37.561371",
        "stationLongitude":"127.063660"
    },
    {  
        "stationId":"ST-244",
        "stationName":"530. 청계벽산아파트 앞",
        "rackTotCnt":"9",
        "parkingBikeTotCnt":"1",
        "shared":"11",
        "stationLatitude":"37.568748",
        "stationLongitude":"127.030403"
    },
    {  
        "stationId":"ST-245",
        "stationName":"533. 우리은행 금호동 지점 앞",
        "rackTotCnt":"7",
        "parkingBikeTotCnt":"5",
        "shared":"71",
        "stationLatitude":"37.548149",
        "stationLongitude":"127.021088"
    },
    {  
        "stationId":"ST-246",
        "stationName":"534. 금호사거리",
        "rackTotCnt":"20",
        "parkingBikeTotCnt":"14",
        "shared":"70",
        "stationLatitude":"37.548634",
        "stationLongitude":"127.025726"
    },
    {  
        "stationId":"ST-247",
        "stationName":"535. 응봉삼거리",
        "rackTotCnt":"16",
        "parkingBikeTotCnt":"14",
        "shared":"88",
        "stationLatitude":"37.553986",
        "stationLongitude":"127.033592"
    },
    {  
        "stationId":"ST-248",
        "stationName":"536. 행당역 2번출구 앞",
        "rackTotCnt":"8",
        "parkingBikeTotCnt":"5",
        "shared":"63",
        "stationLatitude":"37.557350",
        "stationLongitude":"127.029213"
    },
    {  
        "stationId":"ST-249",
        "stationName":"537. 한양대후문역 부근",
        "rackTotCnt":"10",
        "parkingBikeTotCnt":"2",
        "shared":"20",
        "stationLatitude":"37.560356",
        "stationLongitude":"127.041397"
    },
    {  
        "stationId":"ST-250",
        "stationName":"538. 답십리역 8번출구 앞",
        "rackTotCnt":"15",
        "parkingBikeTotCnt":"5",
        "shared":"33",
        "stationLatitude":"37.567650",
        "stationLongitude":"127.051155"
    },
    {  
        "stationId":"ST-251",
        "stationName":"550. 서울시설공단 앞",
        "rackTotCnt":"15",
        "parkingBikeTotCnt":"12",
        "shared":"80",
        "stationLatitude":"37.571640",
        "stationLongitude":"127.035660"
    },
    {  
        "stationId":"ST-357",
        "stationName":"556. 달맞이공원",
        "rackTotCnt":"20",
        "parkingBikeTotCnt":"7",
        "shared":"35",
        "stationLatitude":"37.542053",
        "stationLongitude":"127.020401"
    },
    {  
        "stationId":"ST-358",
        "stationName":"557. 도선동 주민센터 앞",
        "rackTotCnt":"10",
        "parkingBikeTotCnt":"7",
        "shared":"70",
        "stationLatitude":"37.567642",
        "stationLongitude":"127.025696"
    },
    {  
        "stationId":"ST-359",
        "stationName":"558. 성동광진 교육지원청 앞",
        "rackTotCnt":"20",
        "parkingBikeTotCnt":"9",
        "shared":"45",
        "stationLatitude":"37.564606",
        "stationLongitude":"127.036522"
    },
    {  
        "stationId":"ST-360",
        "stationName":"559. 왕십리역 4번 출구 건너편",
        "rackTotCnt":"10",
        "parkingBikeTotCnt":"8",
        "shared":"80",
        "stationLatitude":"37.561096",
        "stationLongitude":"127.036797"
    },
    {  
        "stationId":"ST-361",
        "stationName":"560. 비전교회 앞",
        "rackTotCnt":"8",
        "parkingBikeTotCnt":"4",
        "shared":"50",
        "stationLatitude":"37.551205",
        "stationLongitude":"127.068932"
    },
    {  
        "stationId":"ST-362",
        "stationName":"561. 서울숲역 2번출구 앞",
        "rackTotCnt":"10",
        "parkingBikeTotCnt":"12",
        "shared":"120",
        "stationLatitude":"37.542816",
        "stationLongitude":"127.044670"
    },
    {  
        "stationId":"ST-363",
        "stationName":"562. 군자지하보도 앞",
        "rackTotCnt":"10",
        "parkingBikeTotCnt":"4",
        "shared":"40",
        "stationLatitude":"37.559246",
        "stationLongitude":"127.073410"
    },
    {  
        "stationId":"ST-364",
        "stationName":"563. 성동세무서 건너편",
        "rackTotCnt":"10",
        "parkingBikeTotCnt":"51",
        "shared":"510",
        "stationLatitude":"37.547913",
        "stationLongitude":"127.062752"
    },
    {  
        "stationId":"ST-365",
        "stationName":"564. 금호역 3번출구",
        "rackTotCnt":"15",
        "parkingBikeTotCnt":"14",
        "shared":"93",
        "stationLatitude":"37.547928",
        "stationLongitude":"127.015572"
    },
    {  
        "stationId":"ST-366",
        "stationName":"565. 옥수역 3번출구",
        "rackTotCnt":"20",
        "parkingBikeTotCnt":"21",
        "shared":"105",
        "stationLatitude":"37.541363",
        "stationLongitude":"127.017662"
    },
    {  
        "stationId":"ST-368",
        "stationName":"567. 성수역 2번출구 앞",
        "rackTotCnt":"15",
        "parkingBikeTotCnt":"9",
        "shared":"60",
        "stationLatitude":"37.544590",
        "stationLongitude":"127.057083"
    },
    {  
        "stationId":"ST-369",
        "stationName":"568. 청계8가사거리 부근",
        "rackTotCnt":"10",
        "parkingBikeTotCnt":"9",
        "shared":"90",
        "stationLatitude":"37.571102",
        "stationLongitude":"127.023560"
    },
    {  
        "stationId":"ST-370",
        "stationName":"569. 응봉현대아파트 정류소",
        "rackTotCnt":"10",
        "parkingBikeTotCnt":"5",
        "shared":"50",
        "stationLatitude":"37.549583",
        "stationLongitude":"127.030243"
    },
    {  
        "stationId":"ST-371",
        "stationName":"578. 성동세무서 부근",
        "rackTotCnt":"8",
        "parkingBikeTotCnt":"16",
        "shared":"200",
        "stationLatitude":"37.548286",
        "stationLongitude":"127.062088"
    },
    {  
        "stationId":"ST-372",
        "stationName":"579. 마장역 4번출구",
        "rackTotCnt":"8",
        "parkingBikeTotCnt":"1",
        "shared":"13",
        "stationLatitude":"37.565205",
        "stationLongitude":"127.041847"
    },
    {  
        "stationId":"ST-373",
        "stationName":"580. 신금호역 3번출구 뒤",
        "rackTotCnt":"6",
        "parkingBikeTotCnt":"0",
        "shared":"0",
        "stationLatitude":"37.554493",
        "stationLongitude":"127.020210"
    },
    {  
        "stationId":"ST-374",
        "stationName":"581. 용답초등학교",
        "rackTotCnt":"13",
        "parkingBikeTotCnt":"6",
        "shared":"46",
        "stationLatitude":"37.561012",
        "stationLongitude":"127.054237"
    },
    {  
        "stationId":"ST-375",
        "stationName":"582. 경일중학교 앞",
        "rackTotCnt":"10",
        "parkingBikeTotCnt":"9",
        "shared":"90",
        "stationLatitude":"37.543179",
        "stationLongitude":"127.049080"
    },
    {  
        "stationId":"ST-376",
        "stationName":"583. 청계천 생태교실 앞",
        "rackTotCnt":"20",
        "parkingBikeTotCnt":"17",
        "shared":"85",
        "stationLatitude":"37.567970",
        "stationLongitude":"127.046890"
    },
    {  
        "stationId":"ST-446",
        "stationName":"585. 성수2가1동 공영주차장 인근",
        "rackTotCnt":"9",
        "parkingBikeTotCnt":"7",
        "shared":"78",
        "stationLatitude":"37.536808",
        "stationLongitude":"127.055489"
    },
    {  
        "stationId":"ST-447",
        "stationName":"586. 마장동 주민센터",
        "rackTotCnt":"10",
        "parkingBikeTotCnt":"10",
        "shared":"100",
        "stationLatitude":"37.565941",
        "stationLongitude":"127.045395"
    },
    {  
        "stationId":"ST-482",
        "stationName":"587. 유니베라 앞",
        "rackTotCnt":"10",
        "parkingBikeTotCnt":"8",
        "shared":"80",
        "stationLatitude":"37.545418",
        "stationLongitude":"127.052643"
    },
    {  
        "stationId":"ST-506",
        "stationName":"589. 성수역3번출구",
        "rackTotCnt":"8",
        "parkingBikeTotCnt":"3",
        "shared":"38",
        "stationLatitude":"37.544159",
        "stationLongitude":"127.056656"
    },
    {  
        "stationId":"ST-967",
        "stationName":"594. 중랑물재생센터(서울새활용플라자)",
        "rackTotCnt":"15",
        "parkingBikeTotCnt":"15",
        "shared":"100",
        "stationLatitude":"37.558365",
        "stationLongitude":"127.056908"
    },
    {  
        "stationId":"ST-1738",
        "stationName":"9996. 시설2",
        "rackTotCnt":"2",
        "parkingBikeTotCnt":"1",
        "shared":"50",
        "stationLatitude":"0.000000",
        "stationLongitude":"0.000000"
    },
    {  
        "stationId":"ST-983",
        "stationName":"3500. 군자역2번출구",
        "rackTotCnt":"10",
        "parkingBikeTotCnt":"0",
        "shared":"0",
        "stationLatitude":"37.557587",
        "stationLongitude":"127.079697"
    },
    {  
        "stationId":"ST-984",
        "stationName":"3501. 광진구청 앞",
        "rackTotCnt":"10",
        "parkingBikeTotCnt":"1",
        "shared":"10",
        "stationLatitude":"37.539501",
        "stationLongitude":"127.083000"
    },
    {  
        "stationId":"ST-985",
        "stationName":"3502. 중곡역 1번출구",
        "rackTotCnt":"15",
        "parkingBikeTotCnt":"17",
        "shared":"113",
        "stationLatitude":"37.565659",
        "stationLongitude":"127.084297"
    },
    {  
        "stationId":"ST-986",
        "stationName":"3503. 광진유진스웰",
        "rackTotCnt":"20",
        "parkingBikeTotCnt":"0",
        "shared":"0",
        "stationLatitude":"37.550488",
        "stationLongitude":"127.108955"
    },
    {  
        "stationId":"ST-987",
        "stationName":"3504. 원일교회",
        "rackTotCnt":"8",
        "parkingBikeTotCnt":"3",
        "shared":"38",
        "stationLatitude":"37.538052",
        "stationLongitude":"127.076599"
    },
    {  
        "stationId":"ST-988",
        "stationName":"3505. 신양초교앞 교차로",
        "rackTotCnt":"12",
        "parkingBikeTotCnt":"5",
        "shared":"42",
        "stationLatitude":"37.535221",
        "stationLongitude":"127.068398"
    },
    {  
        "stationId":"ST-1191",
        "stationName":"3506. 영동대교 북단",
        "rackTotCnt":"10",
        "parkingBikeTotCnt":"8",
        "shared":"80",
        "stationLatitude":"37.537014",
        "stationLongitude":"127.061096"
    },
    {  
        "stationId":"ST-1192",
        "stationName":"3507. 어린이회관",
        "rackTotCnt":"25",
        "parkingBikeTotCnt":"15",
        "shared":"60",
        "stationLatitude":"37.545952",
        "stationLongitude":"127.078003"
    },
    {  
        "stationId":"ST-1193",
        "stationName":"3508. 화양사거리",
        "rackTotCnt":"10",
        "parkingBikeTotCnt":"6",
        "shared":"60",
        "stationLatitude":"37.548222",
        "stationLongitude":"127.067879"
    },
    {  
        "stationId":"ST-1194",
        "stationName":"3509. 세종사이버대학교",
        "rackTotCnt":"20",
        "parkingBikeTotCnt":"14",
        "shared":"70",
        "stationLatitude":"37.553417",
        "stationLongitude":"127.073196"
    },
    {  
        "stationId":"ST-1427",
        "stationName":"3510. 중곡SK아파트앞",
        "rackTotCnt":"10",
        "parkingBikeTotCnt":"6",
        "shared":"60",
        "stationLatitude":"37.568649",
        "stationLongitude":"127.086250"
    },
    {  
        "stationId":"ST-1271",
        "stationName":"3516. 구의아리수정수센터앞",
        "rackTotCnt":"10",
        "parkingBikeTotCnt":"5",
        "shared":"50",
        "stationLatitude":"37.543705",
        "stationLongitude":"127.093246"
    },
    {  
        "stationId":"ST-1266",
        "stationName":"3517. 용마사거리",
        "rackTotCnt":"10",
        "parkingBikeTotCnt":"7",
        "shared":"70",
        "stationLatitude":"37.562527",
        "stationLongitude":"127.082275"
    },
    {  
        "stationId":"ST-1263",
        "stationName":"3518. 군자역 7번출구뒤",
        "rackTotCnt":"8",
        "parkingBikeTotCnt":"0",
        "shared":"0",
        "stationLatitude":"37.556862",
        "stationLongitude":"127.079140"
    },
    {  
        "stationId":"ST-1378",
        "stationName":"3520. 광진경찰서",
        "rackTotCnt":"10",
        "parkingBikeTotCnt":"1",
        "shared":"10",
        "stationLatitude":"37.542519",
        "stationLongitude":"127.084084"
    },
    {  
        "stationId":"ST-1379",
        "stationName":"3521. 현대홈타운 뒷길",
        "rackTotCnt":"10",
        "parkingBikeTotCnt":"0",
        "shared":"0",
        "stationLatitude":"37.543427",
        "stationLongitude":"127.096619"
    },
    {  
        "stationId":"ST-1429",
        "stationName":"3523. 건국대학교 과학관(이과대) 앞",
        "rackTotCnt":"10",
        "parkingBikeTotCnt":"26",
        "shared":"260",
        "stationLatitude":"37.541718",
        "stationLongitude":"127.080170"
    },
    {  
        "stationId":"ST-1428",
        "stationName":"3524. 세종대학교",
        "rackTotCnt":"15",
        "parkingBikeTotCnt":"14",
        "shared":"93",
        "stationLatitude":"37.550236",
        "stationLongitude":"127.073822"
    },
    {  
        "stationId":"ST-1602",
        "stationName":"3528. 광진정보도서관",
        "rackTotCnt":"8",
        "parkingBikeTotCnt":"11",
        "shared":"138",
        "stationLatitude":"37.550598",
        "stationLongitude":"127.110512"
    },
    {  
        "stationId":"ST-1603",
        "stationName":"3529. 어린이대공원정문",
        "rackTotCnt":"15",
        "parkingBikeTotCnt":"7",
        "shared":"47",
        "stationLatitude":"37.549789",
        "stationLongitude":"127.075928"
    },
    {  
        "stationId":"ST-1660",
        "stationName":"3533. 건대입구역 사거리(롯데백화점)",
        "rackTotCnt":"10",
        "parkingBikeTotCnt":"8",
        "shared":"80",
        "stationLatitude":"37.539139",
        "stationLongitude":"127.070618"
    },
    {  
        "stationId":"ST-1661",
        "stationName":"3534. 건대입구역 5번출구 뒤",
        "rackTotCnt":"12",
        "parkingBikeTotCnt":"3",
        "shared":"25",
        "stationLatitude":"37.540138",
        "stationLongitude":"127.069283"
    },
    {  
        "stationId":"ST-1662",
        "stationName":"3535. 중곡사거리(국민은행)",
        "rackTotCnt":"10",
        "parkingBikeTotCnt":"4",
        "shared":"40",
        "stationLatitude":"37.559158",
        "stationLongitude":"127.087517"
    },
    {  
        "stationId":"ST-1663",
        "stationName":"3536. 중앙농협(자양동)",
        "rackTotCnt":"10",
        "parkingBikeTotCnt":"1",
        "shared":"10",
        "stationLatitude":"37.531811",
        "stationLongitude":"127.080742"
    },
    {  
        "stationId":"ST-1664",
        "stationName":"3537. 아차산 휴먼시아 아파트 옆",
        "rackTotCnt":"15",
        "parkingBikeTotCnt":"0",
        "shared":"0",
        "stationLatitude":"37.548489",
        "stationLongitude":"127.093758"
    },
    {  
        "stationId":"ST-1690",
        "stationName":"3541. 커먼그라운드",
        "rackTotCnt":"20",
        "parkingBikeTotCnt":"0",
        "shared":"0",
        "stationLatitude":"37.541248",
        "stationLongitude":"127.066040"
    },
    {  
        "stationId":"ST-1722",
        "stationName":"3542. 래미안 구의파크 스위트",
        "rackTotCnt":"17",
        "parkingBikeTotCnt":"0",
        "shared":"0",
        "stationLatitude":"37.545040",
        "stationLongitude":"127.089958"
    },
    {  
        "stationId":"ST-97",
        "stationName":"500. 어린이대공원역 3번출구 앞",
        "rackTotCnt":"10",
        "parkingBikeTotCnt":"4",
        "shared":"40",
        "stationLatitude":"37.547070",
        "stationLongitude":"127.074272"
    },
    {  
        "stationId":"ST-98",
        "stationName":"501. 광진구의회 앞",
        "rackTotCnt":"15",
        "parkingBikeTotCnt":"6",
        "shared":"40",
        "stationLatitude":"37.537308",
        "stationLongitude":"127.070351"
    },
    {  
        "stationId":"ST-99",
        "stationName":"502. 뚝섬유원지역 1번출구 앞",
        "rackTotCnt":"27",
        "parkingBikeTotCnt":"43",
        "shared":"159",
        "stationLatitude":"37.531860",
        "stationLongitude":"127.067192"
    },
    {  
        "stationId":"ST-100",
        "stationName":"503. 더샵스타시티 C동 앞",
        "rackTotCnt":"15",
        "parkingBikeTotCnt":"3",
        "shared":"20",
        "stationLatitude":"37.536667",
        "stationLongitude":"127.073593"
    },
    {  
        "stationId":"ST-101",
        "stationName":"504. 신자초교입구교차로",
        "rackTotCnt":"9",
        "parkingBikeTotCnt":"0",
        "shared":"0",
        "stationLatitude":"37.532970",
        "stationLongitude":"127.075935"
    },
    {  
        "stationId":"ST-102",
        "stationName":"505. 자양사거리 광진아크로텔 앞",
        "rackTotCnt":"10",
        "parkingBikeTotCnt":"1",
        "shared":"10",
        "stationLatitude":"37.537010",
        "stationLongitude":"127.082245"
    },
    {  
        "stationId":"ST-113",
        "stationName":"515. 광양중학교 앞",
        "rackTotCnt":"10",
        "parkingBikeTotCnt":"7",
        "shared":"70",
        "stationLatitude":"37.530235",
        "stationLongitude":"127.086830"
    },
    {  
        "stationId":"ST-252",
        "stationName":"539. 군자교교차로",
        "rackTotCnt":"10",
        "parkingBikeTotCnt":"0",
        "shared":"0",
        "stationLatitude":"37.559795",
        "stationLongitude":"127.074203"
    },
    {  
        "stationId":"ST-253",
        "stationName":"540. 군자역 7번출구 베스트샵 앞",
        "rackTotCnt":"8",
        "parkingBikeTotCnt":"0",
        "shared":"0",
        "stationLatitude":"37.556030",
        "stationLongitude":"127.078644"
    },
    {  
        "stationId":"ST-254",
        "stationName":"542. 강변역 4번출구 뒤",
        "rackTotCnt":"19",
        "parkingBikeTotCnt":"1",
        "shared":"5",
        "stationLatitude":"37.535465",
        "stationLongitude":"127.094482"
    },
    {  
        "stationId":"ST-255",
        "stationName":"543. 구의공원(테크노마트 앞)",
        "rackTotCnt":"20",
        "parkingBikeTotCnt":"14",
        "shared":"70",
        "stationLatitude":"37.535969",
        "stationLongitude":"127.094673"
    },
    {  
        "stationId":"ST-256",
        "stationName":"544. 광남중학교",
        "rackTotCnt":"20",
        "parkingBikeTotCnt":"18",
        "shared":"90",
        "stationLatitude":"37.540730",
        "stationLongitude":"127.102905"
    },
    {  
        "stationId":"ST-257",
        "stationName":"546. 잠실대교북단 교차로",
        "rackTotCnt":"8",
        "parkingBikeTotCnt":"1",
        "shared":"13",
        "stationLatitude":"37.532478",
        "stationLongitude":"127.085091"
    },
    {  
        "stationId":"ST-258",
        "stationName":"548. 자양나들목",
        "rackTotCnt":"20",
        "parkingBikeTotCnt":"8",
        "shared":"40",
        "stationLatitude":"37.529770",
        "stationLongitude":"127.074860"
    },
    {  
        "stationId":"ST-259",
        "stationName":"549. 아차산역 3번출구",
        "rackTotCnt":"10",
        "parkingBikeTotCnt":"0",
        "shared":"0",
        "stationLatitude":"37.551224",
        "stationLongitude":"127.089706"
    },
    {  
        "stationId":"ST-377",
        "stationName":"551. 구의삼성쉐르빌 앞",
        "rackTotCnt":"10",
        "parkingBikeTotCnt":"4",
        "shared":"40",
        "stationLatitude":"37.540062",
        "stationLongitude":"127.094498"
    },
    {  
        "stationId":"ST-378",
        "stationName":"552. 대림아크로리버 앞",
        "rackTotCnt":"10",
        "parkingBikeTotCnt":"8",
        "shared":"80",
        "stationLatitude":"37.536579",
        "stationLongitude":"127.092972"
    },
    {  
        "stationId":"ST-379",
        "stationName":"553. 중곡 성원APT 앞",
        "rackTotCnt":"10",
        "parkingBikeTotCnt":"1",
        "shared":"10",
        "stationLatitude":"37.571255",
        "stationLongitude":"127.079803"
    },
    {  
        "stationId":"ST-381",
        "stationName":"555. 구의3동주민센터",
        "rackTotCnt":"10",
        "parkingBikeTotCnt":"0",
        "shared":"0",
        "stationLatitude":"37.537849",
        "stationLongitude":"127.092171"
    },
    {  
        "stationId":"ST-382",
        "stationName":"571. 어린이대공원역6번출구",
        "rackTotCnt":"20",
        "parkingBikeTotCnt":"7",
        "shared":"35",
        "stationLatitude":"37.548496",
        "stationLongitude":"127.074760"
    },
    {  
        "stationId":"ST-383",
        "stationName":"572. 국립정신 건강센터 앞",
        "rackTotCnt":"20",
        "parkingBikeTotCnt":"12",
        "shared":"60",
        "stationLatitude":"37.565380",
        "stationLongitude":"127.086510"
    },
    {  
        "stationId":"ST-384",
        "stationName":"573. 구의문주차장 앞",
        "rackTotCnt":"10",
        "parkingBikeTotCnt":"0",
        "shared":"0",
        "stationLatitude":"37.545231",
        "stationLongitude":"127.084732"
    },
    {  
        "stationId":"ST-385",
        "stationName":"574. 아차산역4번출구",
        "rackTotCnt":"20",
        "parkingBikeTotCnt":"3",
        "shared":"15",
        "stationLatitude":"37.551849",
        "stationLongitude":"127.088982"
    },
    {  
        "stationId":"ST-386",
        "stationName":"575. 중앙농협 중곡지점",
        "rackTotCnt":"10",
        "parkingBikeTotCnt":"3",
        "shared":"30",
        "stationLatitude":"37.564293",
        "stationLongitude":"127.086937"
    },
    {  
        "stationId":"ST-387",
        "stationName":"576. 광나루역 3번 출구",
        "rackTotCnt":"10",
        "parkingBikeTotCnt":"8",
        "shared":"80",
        "stationLatitude":"37.544830",
        "stationLongitude":"127.104263"
    },
    {  
        "stationId":"ST-388",
        "stationName":"577. 광진청소년수련관",
        "rackTotCnt":"10",
        "parkingBikeTotCnt":"7",
        "shared":"70",
        "stationLatitude":"37.546547",
        "stationLongitude":"127.106133"
    },
    {  
        "stationId":"ST-445",
        "stationName":"584. 광진광장 교통섬",
        "rackTotCnt":"20",
        "parkingBikeTotCnt":"3",
        "shared":"15",
        "stationLatitude":"37.547829",
        "stationLongitude":"127.072632"
    },
    {  
        "stationId":"ST-483",
        "stationName":"588. 뚝섬 유원지역",
        "rackTotCnt":"15",
        "parkingBikeTotCnt":"7",
        "shared":"47",
        "stationLatitude":"37.532688",
        "stationLongitude":"127.067497"
    },
    {  
        "stationId":"ST-972",
        "stationName":"590. 건국대학교 (입학정보관)",
        "rackTotCnt":"20",
        "parkingBikeTotCnt":"3",
        "shared":"15",
        "stationLatitude":"37.539890",
        "stationLongitude":"127.073364"
    },
    {  
        "stationId":"ST-973",
        "stationName":"591. 건국대학교 (행정관)",
        "rackTotCnt":"5",
        "parkingBikeTotCnt":"16",
        "shared":"320",
        "stationLatitude":"37.542778",
        "stationLongitude":"127.075371"
    },
    {  
        "stationId":"ST-974",
        "stationName":"592. 건국대학교 학생회관",
        "rackTotCnt":"30",
        "parkingBikeTotCnt":"47",
        "shared":"157",
        "stationLatitude":"37.541912",
        "stationLongitude":"127.077637"
    },
    {  
        "stationId":"ST-980",
        "stationName":"593.자양중앙나들목",
        "rackTotCnt":"5",
        "parkingBikeTotCnt":"0",
        "shared":"0",
        "stationLatitude":"37.528587",
        "stationLongitude":"127.077873"
    },
    {  
        "stationId":"ST-260",
        "stationName":"600. 휘경2동 주민센터",
        "rackTotCnt":"10",
        "parkingBikeTotCnt":"4",
        "shared":"40",
        "stationLatitude":"37.589912",
        "stationLongitude":"127.068680"
    },
    {  
        "stationId":"ST-261",
        "stationName":"601. 용신동주민센터",
        "rackTotCnt":"10",
        "parkingBikeTotCnt":"8",
        "shared":"80",
        "stationLatitude":"37.575947",
        "stationLongitude":"127.037361"
    },
    {  
        "stationId":"ST-262",
        "stationName":"602. 장안동 사거리",
        "rackTotCnt":"10",
        "parkingBikeTotCnt":"5",
        "shared":"50",
        "stationLatitude":"37.572174",
        "stationLongitude":"127.071388"
    },
    {  
        "stationId":"ST-264",
        "stationName":"604. 답십리초등학교 옆 공원",
        "rackTotCnt":"15",
        "parkingBikeTotCnt":"1",
        "shared":"7",
        "stationLatitude":"37.569656",
        "stationLongitude":"127.055962"
    },
    {  
        "stationId":"ST-265",
        "stationName":"605. 신설동역8번출구",
        "rackTotCnt":"8",
        "parkingBikeTotCnt":"7",
        "shared":"88",
        "stationLatitude":"37.574200",
        "stationLongitude":"127.026497"
    },
    {  
        "stationId":"ST-266",
        "stationName":"606. 휘경공고앞",
        "rackTotCnt":"6",
        "parkingBikeTotCnt":"1",
        "shared":"17",
        "stationLatitude":"37.584625",
        "stationLongitude":"127.070290"
    },
    {  
        "stationId":"ST-268",
        "stationName":"608. 전농삼성아파트",
        "rackTotCnt":"10",
        "parkingBikeTotCnt":"10",
        "shared":"100",
        "stationLatitude":"37.581310",
        "stationLongitude":"127.055344"
    },
    {  
        "stationId":"ST-269",
        "stationName":"609. 제기2교",
        "rackTotCnt":"20",
        "parkingBikeTotCnt":"7",
        "shared":"35",
        "stationLatitude":"37.587791",
        "stationLongitude":"127.037361"
    },
    {  
        "stationId":"ST-270",
        "stationName":"610. 동대문중 교차로",
        "rackTotCnt":"10",
        "parkingBikeTotCnt":"6",
        "shared":"60",
        "stationLatitude":"37.573086",
        "stationLongitude":"127.052162"
    },
    {  
        "stationId":"ST-271",
        "stationName":"612. 시립동부병원 앞 사거리",
        "rackTotCnt":"20",
        "parkingBikeTotCnt":"4",
        "shared":"20",
        "stationLatitude":"37.573666",
        "stationLongitude":"127.030815"
    },
    {  
        "stationId":"ST-272",
        "stationName":"613. 신설동역 10번출구 앞",
        "rackTotCnt":"10",
        "parkingBikeTotCnt":"7",
        "shared":"70",
        "stationLatitude":"37.575272",
        "stationLongitude":"127.023468"
    },
    {  
        "stationId":"ST-273",
        "stationName":"614. 용두동 사거리",
        "rackTotCnt":"20",
        "parkingBikeTotCnt":"0",
        "shared":"0",
        "stationLatitude":"37.577686",
        "stationLongitude":"127.031013"
    },
    {  
        "stationId":"ST-274",
        "stationName":"615. 용두동 레미안허브리츠아파트 앞",
        "rackTotCnt":"20",
        "parkingBikeTotCnt":"11",
        "shared":"55",
        "stationLatitude":"37.576382",
        "stationLongitude":"127.035110"
    },
    {  
        "stationId":"ST-275",
        "stationName":"616. 서울시립대 앞",
        "rackTotCnt":"20",
        "parkingBikeTotCnt":"7",
        "shared":"35",
        "stationLatitude":"37.582561",
        "stationLongitude":"127.054367"
    },
    {  
        "stationId":"ST-276",
        "stationName":"617. 청솔우성아파트 앞",
        "rackTotCnt":"20",
        "parkingBikeTotCnt":"5",
        "shared":"25",
        "stationLatitude":"37.574203",
        "stationLongitude":"127.057693"
    },
    {  
        "stationId":"ST-389",
        "stationName":"621. 동대문중학교 옆",
        "rackTotCnt":"15",
        "parkingBikeTotCnt":"4",
        "shared":"27",
        "stationLatitude":"37.574718",
        "stationLongitude":"127.053391"
    },
    {  
        "stationId":"ST-390",
        "stationName":"622. 전농사거리 교통섬",
        "rackTotCnt":"15",
        "parkingBikeTotCnt":"6",
        "shared":"40",
        "stationLatitude":"37.577793",
        "stationLongitude":"127.057831"
    },
    {  
        "stationId":"ST-391",
        "stationName":"623. 서울시립대 정문 앞",
        "rackTotCnt":"20",
        "parkingBikeTotCnt":"11",
        "shared":"55",
        "stationLatitude":"37.583698",
        "stationLongitude":"127.053856"
    },
    {  
        "stationId":"ST-392",
        "stationName":"624. 전농동 동아아파트 앞",
        "rackTotCnt":"10",
        "parkingBikeTotCnt":"1",
        "shared":"10",
        "stationLatitude":"37.574188",
        "stationLongitude":"127.045891"
    },
    {  
        "stationId":"ST-393",
        "stationName":"625. 답십리초등학교 앞(현대시장 옆)",
        "rackTotCnt":"9",
        "parkingBikeTotCnt":"6",
        "shared":"67",
        "stationLatitude":"37.568192",
        "stationLongitude":"127.057175"
    },
    {  
        "stationId":"ST-394",
        "stationName":"626. 군자교 서측 녹지대",
        "rackTotCnt":"10",
        "parkingBikeTotCnt":"11",
        "shared":"110",
        "stationLatitude":"37.561153",
        "stationLongitude":"127.070969"
    },
    {  
        "stationId":"ST-395",
        "stationName":"627. 장안동삼거리 교통섬",
        "rackTotCnt":"10",
        "parkingBikeTotCnt":"7",
        "shared":"70",
        "stationLatitude":"37.578632",
        "stationLongitude":"127.071907"
    },
    {  
        "stationId":"ST-396",
        "stationName":"628. 휘봉고등학교 앞",
        "rackTotCnt":"15",
        "parkingBikeTotCnt":"9",
        "shared":"60",
        "stationLatitude":"37.586815",
        "stationLongitude":"127.067543"
    },
    {  
        "stationId":"ST-397",
        "stationName":"630. 동대문구 보건소",
        "rackTotCnt":"15",
        "parkingBikeTotCnt":"9",
        "shared":"60",
        "stationLatitude":"37.574852",
        "stationLongitude":"127.040306"
    },
    {  
        "stationId":"ST-398",
        "stationName":"631. 답십리역 1번출구",
        "rackTotCnt":"15",
        "parkingBikeTotCnt":"4",
        "shared":"27",
        "stationLatitude":"37.568184",
        "stationLongitude":"127.051277"
    },
    {  
        "stationId":"ST-400",
        "stationName":"633. 청량리 기업은행 앞",
        "rackTotCnt":"8",
        "parkingBikeTotCnt":"11",
        "shared":"138",
        "stationLatitude":"37.580406",
        "stationLongitude":"127.044823"
    },
    {  
        "stationId":"ST-401",
        "stationName":"634. 외국어대 정문 앞",
        "rackTotCnt":"20",
        "parkingBikeTotCnt":"32",
        "shared":"160",
        "stationLatitude":"37.596020",
        "stationLongitude":"127.059830"
    },
    {  
        "stationId":"ST-402",
        "stationName":"635. 시조사 앞 (청량고정문 옆)",
        "rackTotCnt":"12",
        "parkingBikeTotCnt":"5",
        "shared":"42",
        "stationLatitude":"37.587517",
        "stationLongitude":"127.052773"
    },
    {  
        "stationId":"ST-403",
        "stationName":"636. 세종대왕기념관 교차로",
        "rackTotCnt":"10",
        "parkingBikeTotCnt":"14",
        "shared":"140",
        "stationLatitude":"37.590900",
        "stationLongitude":"127.042587"
    },
    {  
        "stationId":"ST-404",
        "stationName":"637. KAIST 경영대학 앞",
        "rackTotCnt":"10",
        "parkingBikeTotCnt":"4",
        "shared":"40",
        "stationLatitude":"37.591614",
        "stationLongitude":"127.045792"
    },
    {  
        "stationId":"ST-405",
        "stationName":"638. 서울시립대 정보기술관",
        "rackTotCnt":"20",
        "parkingBikeTotCnt":"10",
        "shared":"50",
        "stationLatitude":"37.583008",
        "stationLongitude":"127.060974"
    },
    {  
        "stationId":"ST-406",
        "stationName":"639. 서울시립대 후문",
        "rackTotCnt":"14",
        "parkingBikeTotCnt":"1",
        "shared":"7",
        "stationLatitude":"37.585197",
        "stationLongitude":"127.060951"
    },
    {  
        "stationId":"ST-407",
        "stationName":"640. KEB하나은행 청량리역지점",
        "rackTotCnt":"6",
        "parkingBikeTotCnt":"6",
        "shared":"100",
        "stationLatitude":"37.582455",
        "stationLongitude":"127.044495"
    },
    {  
        "stationId":"ST-408",
        "stationName":"641. 용두역 4번출구",
        "rackTotCnt":"10",
        "parkingBikeTotCnt":"2",
        "shared":"20",
        "stationLatitude":"37.573753",
        "stationLongitude":"127.038536"
    },
    {  
        "stationId":"ST-409",
        "stationName":"642. 신답역 사거리",
        "rackTotCnt":"7",
        "parkingBikeTotCnt":"3",
        "shared":"43",
        "stationLatitude":"37.570156",
        "stationLongitude":"127.048584"
    },
    {  
        "stationId":"ST-410",
        "stationName":"643. 동대문구민체육센터 (육교아래)",
        "rackTotCnt":"10",
        "parkingBikeTotCnt":"0",
        "shared":"0",
        "stationLatitude":"37.566971",
        "stationLongitude":"127.074417"
    },
    {  
        "stationId":"ST-1298",
        "stationName":"646. 장한평역 1번출구 (국민은행앞)",
        "rackTotCnt":"10",
        "parkingBikeTotCnt":"19",
        "shared":"190",
        "stationLatitude":"37.561867",
        "stationLongitude":"127.064377"
    },
    {  
        "stationId":"ST-1299",
        "stationName":"647. 신이문역 1번출구",
        "rackTotCnt":"10",
        "parkingBikeTotCnt":"9",
        "shared":"90",
        "stationLatitude":"37.602798",
        "stationLongitude":"127.067268"
    },
    {  
        "stationId":"ST-1300",
        "stationName":"648. 장안동위더스빌옆",
        "rackTotCnt":"15",
        "parkingBikeTotCnt":"10",
        "shared":"67",
        "stationLatitude":"37.566700",
        "stationLongitude":"127.062424"
    },
    {  
        "stationId":"ST-1302",
        "stationName":"650. 중랑교사거리",
        "rackTotCnt":"20",
        "parkingBikeTotCnt":"17",
        "shared":"85",
        "stationLatitude":"37.591534",
        "stationLongitude":"127.067741"
    },
    {  
        "stationId":"ST-1303",
        "stationName":"651. 우리은행청량리지점앞",
        "rackTotCnt":"10",
        "parkingBikeTotCnt":"8",
        "shared":"80",
        "stationLatitude":"37.582748",
        "stationLongitude":"127.048279"
    },
    {  
        "stationId":"ST-1447",
        "stationName":"652. 답십리 래미안엘파인아파트 입구",
        "rackTotCnt":"20",
        "parkingBikeTotCnt":"15",
        "shared":"75",
        "stationLatitude":"37.576530",
        "stationLongitude":"127.065941"
    },
    {  
        "stationId":"ST-1449",
        "stationName":"654. 전농동 텃골공원",
        "rackTotCnt":"10",
        "parkingBikeTotCnt":"7",
        "shared":"70",
        "stationLatitude":"37.577621",
        "stationLongitude":"127.052109"
    },